CODLOCAL,CEN_EDU_L,CODCPSIG,NOMCPSIG,FUENTE_LOC,X_LONGITUD,Y_LATITUD,Fecha,VAL,NALT_LOCAL,CORD_YX
036891,88312,122032,ANTA,MED_GPS,-78.07380343600,-9.24839784300,5/27/2016,,1780,-9.248397843-78.073803436
036787,88043,617406,HUELLAPAMPA,MED_GPS,-78.09315335200,-9.23578408400,5/27/2016,,1448,-9.235784084-78.093153352
037206,88367,564061,SAN PEDRITO,MED_GPS,-78.44923789200,-9.23710553000,5/31/2016,,33,-9.23710553-78.449237892
037112,89537,112942,CAPELLANIA,MED_GPS,-78.37994548900,-9.20134555300,5/30/2016,,100,-9.201345553-78.379945489
037089,89510,123595,CERRO BLANCO,MED_GPS,-78.34166467900,-9.18405910900,5/30/2016,,152,-9.184059109-78.341664679
037013,MARCOS EVARISTO VILLACRE,113710,NEPE├æA,MED_GPS,-78.35752503100,-9.17538641700,5/30/2016,,140,-9.175386417-78.357525031
036914,88343,117741,YAPACAYAN,MED_GPS,-78.06919586500,-9.17091441200,5/26/2016,,1350,-9.170914412-78.069195865
803783,HIGH SCHOOL CATOLICA VIRGEN DE GUADALUPE,113710,NEPE├æA,MED_GPS,-78.35663547800,-9.17161288200,5/30/2016,,142,-9.171612882-78.356635478
036928,88359,115110,BRE├æA,MED_GPS,-78.07727086200,-9.16509339700,5/26/2016,,1211,-9.165093397-78.077270862
036933,88372,126175,VIRAHUANCA,MED_GPS,-78.20060977100,-9.16087957400,5/27/2016,,420,-9.160879574-78.200609771
036829,88082,132018,BRE├æA ISCO,MED_GPS,-78.09026052800,-9.15743443100,5/26/2016,,1044,-9.157434431-78.090260528
037051,88099,110298,SAN JOSE,MED_GPS,-78.32775419900,-9.15606710200,5/30/2016,,189,-9.156067102-78.327754199
036773,88007,547166,WINTON,MED_GPS,-78.11005747300,-9.14913538200,5/26/2016,,884,-9.149135382-78.110057473
036848,88259,120737,HUARCOS,MED_GPS,-78.16405913400,-9.14950972700,5/27/2016,,565,-9.149509727-78.164059134
037094,89501 MANUEL ENCARNACION ROJO CASTILLO,119806,SAN JACINTO,MED_GPS,-78.28420089300,-9.14781365500,5/30/2016,,257,-9.147813655-78.284200893
037107,89509 AMANDA MIASTA GUTIERREZ,119806,SAN JACINTO,MED_GPS,-78.28350375800,-9.14742533300,5/30/2016,,257,-9.147425333-78.283503758
807781,SCHOOL KINDER KING,683073,SOLIDEX ALTO,MED_GPS,-78.28369677700,-9.14655125900,5/30/2016,,264,-9.146551259-78.283696777
701176,PEQUE├æOS EMPRENDEDORES,652131,LA MOLINA,MED_GPS,-78.50708730600,-9.14582431900,5/31/2016,,25,-9.145824319-78.507087306
036886,88303,537939,LIMONHIRCA,MED_GPS,-78.16836786100,-9.14302054800,5/27/2016,,575,-9.143020548-78.168367861
036768,88002 JOSUE ROCA DE LOS SANTOS,112040,POCOS,MED_GPS,-78.14335167200,-9.14128936900,5/26/2016,,671,-9.141289369-78.143351672
036947,SANTO DOMINGO,118508,MORO,MED_GPS,-78.18190478300,-9.14055117700,5/26/2016,,488,-9.140551177-78.181904783
037975,CEBA - GABRIELA MISTRAL,652142,VILLA SAN LUIS,MED_GPS,-78.51012666300,-9.13766866000,5/31/2016,,36,-9.13766866-78.510126663
037065,89508,110531,MOTOCACHY,MED_GPS,-78.21117804700,-9.13485970300,5/25/2016,,434,-9.134859703-78.211178047
625248,88414,683074,NUEVO MORO,MED_GPS,-78.16853144300,-9.13348142900,5/26/2016,,539,-9.133481429-78.168531443
745585,JESUS DE BELEN,682113,NUEVA ESPERANZA,MED_GPS,-78.49957431200,-9.13579324800,5/31/2016,,43,-9.135793248-78.499574312
729081,89540,655255,LAS PENCAS,MED_GPS,-78.18213296500,-9.12424555200,5/27/2016,,520,-9.124245552-78.182132965
037008,88271,133023,SAN JUAN,MED_GPS,-78.19437603200,-9.11985912400,5/25/2016,,500,-9.119859124-78.194376032
036952,88390,529742,HUANCARPON,MED_GPS,-78.17378646800,-9.10708741000,5/27/2016,,641,-9.10708741-78.173786468
036810,88081,110820,HORNILLOS,MED_GPS,-78.06439271700,-9.10396299500,5/26/2016,,1423,-9.103962995-78.064392717
625432,88412,528019,SAN FELIX,MED_GPS,-78.08249046900,-9.10092858800,5/26/2016,,1234,-9.100928588-78.082490469
036792,88077 WALTER MALDONADO COLONIA,125531,LAREA,MED_GPS,-78.11895017200,-9.09987912700,5/26/2016,,870,-9.099879127-78.118950172
036909,88326,522074,TAMBO,MED_GPS,-78.10164355000,-9.09652841800,5/26/2016,,1082,-9.096528418-78.10164355
036872,88294,561254,QUILLHUAY,MED_GPS,-78.16421488300,-9.09552113200,5/25/2016,,619,-9.095521132-78.164214883
036834,88225,614198,CAPTUY,MED_GPS,-78.17498117000,-9.09374274900,5/25/2016,,600,-9.093742749-78.17498117
036141,88098,125147,SALITRE,MED_GPS,-78.15259436000,-9.05155146800,5/25/2016,,824,-9.051551468-78.15259436
036004,88057 SAN LORENZO MARTIR,114036,COSMA,MED_GPS,-78.03995217500,-9.04268951300,5/25/2016,,2581,-9.042689513-78.039952175
035957,88050,113225,JIMBE,MED_GPS,-78.13864577900,-9.01407601400,5/25/2016,,1185,-9.014076014-78.138645779
036075,88083,111207,GUADALUPE,MED_GPS,-78.06273142100,-9.01279964000,5/25/2016,,2080,-9.01279964-78.062731421
036216,88306,539736,MIRAFLORES DE SAN PABLO,MED_GPS,-78.09967285200,-9.00336337400,5/24/2016,,1620,-9.003363374-78.099672852
036122,88094 BETZABE ESPINOZA PEREZ,126108,CANCHAS,MED_GPS,-78.08557944300,-8.99310695600,5/24/2016,,1827,-8.993106956-78.085579443
036061,88079,111653,HUASHCAYAN,MED_GPS,-78.03053459200,-8.98994102900,5/24/2016,,2573,-8.989941029-78.030534592
036202,88305,510542,CUTCO,MED_GPS,-78.08632288300,-8.98706735200,5/24/2016,,1649,-8.987067352-78.086322883
035981,88055 DANILO CARRASCO MAZA,123490,COLCAP,MED_GPS,-78.05840768000,-8.97887069200,5/24/2016,,1998,-8.978870692-78.05840768
364482,478 GRANITOS DE MOSTAZA,570625,SAN PABLO DE CUYANA,MED_GPS,-73.37636107500,-3.76656065700,7/16/2016,,98,-3.766560657-73.376361075
364793,606,683072,EL PORVENIR,MED_GPS,-73.27828327100,-3.75335900600,7/20/2016,,85,-3.753359006-73.278283271
364929,694,240577,SAN PEDRO,MED_GPS,-73.33539792700,-3.75261997700,7/17/2016,,91,-3.752619977-73.335397927
364255,326,125012,SAN JOSE DE LUPUNA,MED_GPS,-73.32734960400,-3.74337158000,7/17/2016,,94,-3.74337158-73.327349604
364651,544,129235,SANTA RITA,MED_GPS,-73.32404945800,-3.73200083400,7/17/2016,,102,-3.732000834-73.324049458
368692,60048 SAN JOSE DE OMAGUAS,311005,SAN JOSE DE OMAGUAS,MED_GPS,-73.37320555800,-4.18893738500,7/13/2016,,99,-4.188937385-73.373205558
368772,60145,537488,SAN SALVADOR DE OMAGUAS,MED_GPS,-73.37721087200,-4.17411212900,7/13/2016,,112,-4.174112129-73.377210872
369149,60842,512139,SE├æOR DE LOS MILAGROS,MED_GPS,-73.37730927100,-4.13434295200,7/13/2016,,93,-4.134342952-73.377309271
369620,601535,623127,SAN JORGE 2,MED_GPS,-73.19341954300,-4.02288153700,7/15/2016,,92,-4.022881537-73.193419543
368885,60157,626622,YANAYACU INTERIOR,MED_GPS,-73.12801612900,-3.91083440500,4/14/2016,,110,-3.910834405-73.128016129
746028,601348,625883,NUEVA JERUSALEN,MED_GPS,-73.12628243900,-3.88061915900,7/14/2016,,94,-3.880619159-73.126282439
366891,PADRE SEVERINO DESHAIES,622081,ROSARIO AUCAYO,MED_GPS,-73.15360288900,-3.85795096100,7/14/2016,,90,-3.857950961-73.153602889
369427,601347,612446,SANTA ROSA DE MUYUY,MED_GPS,-73.23657467600,-3.85636706500,7/21/2016,,94,-3.856367065-73.236574676
365472,60106,623826,UNION QUEBRADA AUCAYO,MED_GPS,-73.12185321400,-3.84378553700,7/14/2016,,90,-3.843785537-73.121853214
365429,60101,236393,GALLITO,MED_GPS,-73.15677843900,-3.83261881900,7/14/2016,,88,-3.832618819-73.156778439
365919,60955,624222,CENTRO MAZANA ZONA II,MED_GPS,-73.22667392500,-3.83175420800,7/21/2016,,92,-3.831754208-73.226673925
365938,60961,626487,MAZANA I ZONA,MED_GPS,-73.23668607000,-3.80460183500,7/21/2016,,88,-3.804601835-73.23668607
365783,60754,125982,TARAPOTO,MED_GPS,-73.40615104100,-3.80462900000,7/19/2016,,100,-3.804629-73.406151041
740352,601581 CORAZON DE JESUS,573197,POPULAR MORONACOCHA,MED_GPS,-73.30745740300,-3.79857682900,7/19/2016,,107,-3.798576829-73.307457403
365735,60368,682227,ULLPA CA├æO,MED_GPS,-73.23580916200,-3.78824190600,7/22/2016,,92,-3.788241906-73.235809162
365226,60027,128113,SANTA CLARA,MED_GPS,-73.33911455800,-3.78648725400,7/16/2016,,94,-3.786487254-73.339114558
365882,60901,625622,CA├æAVERAL,MED_GPS,-73.17486793700,-3.78363922500,7/22/2016,,91,-3.783639225-73.174867937
365518,60113,234039,RUMOCOCHA,MED_GPS,-73.31208384500,-3.78043661500,7/19/2016,,92,-3.780436615-73.312083845
803231,60097,566083,28 DE JULIO,MED_GPS,-73.26070300200,-3.77813741700,7/20/2016,,85,-3.778137417-73.260703002
366235,601329,618408,8 DE DICIEMBRE,MED_GPS,-73.24854384800,-3.77775118400,7/21/2016,,88,-3.777751184-73.248543848
366424,601442,130824,HUATURI,MED_GPS,-73.40424163800,-3.77558343200,7/16/2016,,97,-3.775583432-73.404241638
366693,6010127,619503,SAN MIGUEL,MED_GPS,-73.18922821400,-3.76939147100,7/22/2016,,88,-3.769391471-73.189228214
365504,60112,570625,SAN PABLO DE CUYANA,MED_GPS,-73.37507350400,-3.76570817900,7/16/2016,,97,-3.765708179-73.375073504
366363,601411 MELVIN JONES,651729,CASTA├æAL PAMPACHICA,MED_GPS,-73.27290363500,-3.76120114200,7/20/2016,,95,-3.761201142-73.272903635
366848,6010278,683072,EL PORVENIR,MED_GPS,-73.27842058500,-3.75448963300,7/20/2016,,87,-3.754489633-73.278420585
366527,601498,652672,8 DE OCTUBRE,MED_GPS,-73.40742499100,-3.75279079500,7/16/2016,,99,-3.752790795-73.407424991
365387,60095,240577,SAN PEDRO,MED_GPS,-73.33548787900,-3.75265632200,7/17/2016,,90,-3.752656322-73.335487879
366301,601385,613340,LOBOYACU,MED_GPS,-73.39034144400,-3.75057994800,7/16/2016,,98,-3.750579948-73.390341444
365580,60127,125012,SAN JOSE DE LUPUNA,MED_GPS,-73.32435199100,-3.74523774800,7/17/2016,,91,-3.745237748-73.324351991
365561,60124,129235,SANTA RITA,MED_GPS,-73.32394351500,-3.73090370700,7/17/2016,,100,-3.730903707-73.323943515
740842,AUCAYO,622081,ROSARIO AUCAYO,MED_GPS,-73.15481945400,-3.86029283400,7/14/2016,,90,-3.860292834-73.154819454
1879429,PAJARITO I - 5,625883,NUEVA JERUSALEN,MED_GPS,-73.12606414600,-3.88163229000,7/14/2016,,96,-3.88163229-73.126064146
1882824,PAJARITO II - 1,622081,ROSARIO AUCAYO,MED_GPS,-73.15185209000,-3.86287243600,7/14/2016,,92,-3.862872436-73.15185209
2688148,CHISPITAS DE ILUSION,119703,MONTE GRANDE,MED_GPS,-80.02618089700,-6.54134618600,8/25/2016,,18,-6.541346186-80.026180897
2688146,ESTRELLITAS DE MARIA,654200,LAS PALMERAS,MED_GPS,-79.96945557500,-6.52025575100,8/22/2016,,27,-6.520255751-79.969455575
3863632,ALEGRIA DE LOS NI├æOS,654196,LOS SANCHEZ,MED_GPS,-79.96763348500,-6.51531361800,8/22/2016,,31,-6.515313618-79.967633485
2690712,GOTITAS DE AMOR,683062,NUEVA ESPERANZA,MED_GPS,-79.85735651900,-6.51169616900,8/25/2016,,49,-6.511696169-79.857356519
2688142,RAYITOS DE LUNA,219374,ANGOLO I,MED_GPS,-80.04190619700,-6.51013531000,8/22/2016,,15,-6.51013531-80.041906197
3863630,DIVINO NI├æO JESUS,122947,OLLERIA,MED_GPS,-80.00089454200,-6.50000709900,8/22/2016,,25,-6.500007099-80.000894542
2690720,ANGELITOS DE MARIA,132609,EL PAVO,MED_GPS,-79.83515901800,-6.49868134400,8/25/2016,,56,-6.498681344-79.835159018
2688151,CHISPITAS DE ALEGRIA,624967,BELLA LIDIA,MED_GPS,-79.90851366400,-6.49457946600,8/25/2016,,38,-6.494579466-79.908513664
2688147,JOYITAS DE JESUS,654186,EL PORVENIR,MED_GPS,-79.94425958000,-6.49045853600,8/22/2016,,35,-6.490458536-79.94425958
2690705,LUCERITOS DE MI VIDA,123004,LA PINTADA,MED_GPS,-79.85736994800,-6.48972738800,8/24/2016,,47,-6.489727388-79.857369948
3839619,ALITA DE ANGEL,624844,CHIRIMOYO BAJO,MED_GPS,-79.87742950600,-6.48137716200,8/23/2016,,44,-6.481377162-79.877429506
2690726,MI CASITA DE LA INFANCIA,654262,LA ARENA,MED_GPS,-79.91010721800,-6.48101607600,8/24/2016,,40,-6.481016076-79.910107218
3863640,DIVINO NI├æO JESUS,683064,FUNDO SAN JOSE,MED_GPS,-79.86437084800,-6.48077468700,8/23/2016,,46,-6.480774687-79.864370848
3839608,SARITA COLONIA,111939,COMPUERTA MARCELO,MED_GPS,-79.87908104500,-6.47300745300,8/23/2016,,46,-6.473007453-79.879081045
3863637,LOS NI├æOS Y SU MUNDO,654258,ALTO PERU,MED_GPS,-79.90844478400,-6.47194986600,8/24/2016,,43,-6.471949866-79.908444784
3839618,LUCECITA DE COLORES,210106,HUACA EL MUERTO,MED_GPS,-79.88922128600,-6.47169113900,8/23/2016,,45,-6.471691139-79.889221286
2690728,CORAZON DE JESUS,517820,LOS RIOJAS,MED_GPS,-79.90009539700,-6.46928181600,8/24/2016,,47,-6.469281816-79.900095397
3863645,SAGRADA FAMILIA,537138,HUACA DE RICO RAMA PANAQUE,MED_GPS,-79.85963650100,-6.46695869600,8/24/2016,,48,-6.466958696-79.859636501
2697219,CORAZON DE JESUS,683065,SEQUIONES BAJO,MED_GPS,-79.93285325300,-6.46191696000,8/22/2016,,39,-6.46191696-79.932853253
3863646,ESTRELLITAS DE AMOR,683066,CULPON BAJO RAMA EL SAUCE,MED_GPS,-79.84457109400,-6.45952640400,8/24/2016,,52,-6.459526404-79.844571094
3839603,JESUS MI BUEN PASTOR,534693,CULPON BAJO,MED_GPS,-79.85325733600,-6.45729308700,8/24/2016,,53,-6.457293087-79.853257336
3839616,CHISPITAS DE ILUSION,617908,EL COLOCHE,MED_GPS,-79.87324916100,-6.45689543900,8/23/2016,,50,-6.456895439-79.873249161
2697215,EL MUNDO DE LOS NI├æOS,541897,PUENTE MACHUCA,MED_GPS,-79.84887464900,-6.43887879800,8/23/2016,,56,-6.438878798-79.848874649
3863613,SANTISIMA VIRGEN DE GUADALUPE,683067,LOS VIDAURRE,MED_GPS,-79.84422014800,-6.43482545400,8/23/2016,,55,-6.434825454-79.844220148
2697206,JESUS AMA A LOS NI├æOS,538301,SANTA ISABEL,MED_GPS,-79.89937554500,-6.42908365400,8/23/2016,,49,-6.429083654-79.899375545
2697203,JESUS AMIGO DE LOS NI├æOS,683068,LOS BANCES,MED_GPS,-79.87193325500,-6.42632228600,8/23/2016,,51,-6.426322286-79.871933255
3863614,LOS NI├æOS DE JESUS,619627,SAN LUIS,MED_GPS,-79.87923645300,-6.41125576100,8/23/2016,,52,-6.411255761-79.879236453
3954333,TIERNAS HUELLITAS,626343,EL CAUTIVO,MED_GPS,-79.82949914400,-6.40813741800,8/23/2016,,59,-6.408137418-79.829499144
3954321,EL MILAGRO,541337,LA SOLEDAD,MED_GPS,-79.85599246000,-6.39825826600,8/23/2016,,58,-6.398258266-79.85599246
3954316,AMIGUITOS DE JESUS,523030,EL PINTOR,MED_GPS,-79.82175063200,-6.38382395700,8/23/2016,,62,-6.383823957-79.821750632
2697216,JESUS DIVINO MAESTRO,683069,FELIX GIL MAYANGA,MED_GPS,-79.92940226000,-6.37380689000,8/23/2016,,46,-6.37380689-79.92940226
2675164,GOTITAS DEL CIELO,559960,CERRO TEODORO,MED_GPS,-79.81781989700,-5.78372278900,8/26/2016,,138,-5.783722789-79.817819897
3964206,AMIGUITOS DE JESUS,245817,CERRO TEODORO LOS MORALES,MED_GPS,-79.80635943300,-5.77545930500,8/26/2016,,159,-5.775459305-79.806359433
3964204,SAN FRANCISCO DE ASIS,650099,SAN FRANCISCO DE ASIS,MED_GPS,-79.83029099900,-5.76174327300,8/26/2016,,128,-5.761743273-79.830290999
287648,10229 NICOLAS ZAPATA SALDARRIAGA,116316,SASAPE VIEJO,MED_GPS,-79.90431790200,-6.51123946600,8/24/2016,,36,-6.511239466-79.904317902
287752,LICEO AGUIRRE,123004,LA PINTADA,MED_GPS,-79.85774962200,-6.49258627100,8/24/2016,,51,-6.492586271-79.857749622
287634,10228 ELINA VINCES LLANOS,131704,GRANJA SASAPE,MED_GPS,-79.90321559000,-6.48575864900,8/24/2016,,41,-6.485758649-79.90321559
284027,10124 NUESTRA SE├æORA DE LOURDES,616889,SAN PEDRO DE SASAPE,MED_GPS,-79.88142572400,-6.45984387200,8/23/2016,,46,-6.459843872-79.881425724
373486,60109 SANTA ESTEFANIA,546777,MOMONCILLO,MED_GPS,-73.26994264700,-3.67359660100,6/1/2016,,95,-3.673596601-73.269942647
740535,771,621986,SANTA CLOTILDE,MED_GPS,-73.24471900400,-3.66125816800,5/8/2016,,114,-3.661258168-73.244719004
373170,446,620922,PORVENIR,MED_GPS,-73.29637547700,-3.65635386400,6/1/2016,,95,-3.656353864-73.296375477
373293,676 - BILINGUE INTERCULTURAL,246228,EL MILAGRO,MED_GPS,-73.23869140300,-3.65561813600,5/29/2016,,112,-3.655618136-73.238691403
544780,894 - BILINGUE INTERCULTURAL,620742,INDEPENDENCIA,MED_GPS,-73.23627674200,-3.64812605000,5/28/2016,,137,-3.64812605-73.236276742
373226,542,622849,ASTORIA,MED_GPS,-73.22305006400,-3.64462484400,5/2/2016,,91,-3.644624844-73.223050064
373108,336,517784,PICURO YACU,MED_GPS,-73.25894061000,-3.64381808800,5/28/2016,,133,-3.643818088-73.25894061
373132,349,215661,BARRIO FLORIDO,MED_GPS,-73.21212689300,-3.63833031900,5/29/2016,,98,-3.638330319-73.212126893
740234,776,620551,CENTRO ARENAL,MED_GPS,-73.22038188200,-3.63475860900,5/28/2016,,132,-3.634758609-73.220381882
740248,777,614726,NUEVA AMAZONIA,MED_GPS,-73.14072973800,-3.62788000800,5/27/2016,,87,-3.627880008-73.140729738
740229,775,621267,SANTA CLARA ZONA 2,MED_GPS,-73.20464488100,-3.62785773000,5/29/2016,,93,-3.62785773-73.204644881
740465,601687,569646,SAN ANTONIO PICUROYACU,MED_GPS,-73.26002000500,-3.62774663600,5/28/2016,,137,-3.627746636-73.260020005
373146,354,242209,SANTA CLARA DE OJEAL,MED_GPS,-73.19159576600,-3.62317205800,5/27/2016,,93,-3.623172058-73.191595766
373288,671,612438,SANTA CLARA III ZONA,MED_GPS,-73.18040733300,-3.61615165000,5/27/2016,,93,-3.61615165-73.180407333
373151,400 CORAZON DE JESUS,212848,SANTA MARIA DE OJEAL,MED_GPS,-73.16925382300,-3.60662924400,5/27/2016,,92,-3.606629244-73.169253823
373274,658 SANTA MARIA DE FATIMA,112840,SANTA MARIA DE FATIMA,MED_GPS,-73.13157303400,-3.60291829800,5/27/2016,,87,-3.602918298-73.131573034
123379,828,511314,SAN JUAN DE SINCHICUY,MED_GPS,-73.18269384600,-3.58594917400,5/27/2016,,89,-3.585949174-73.182693846
365537,60119,551545,SAN JOSE,MED_GPS,-73.24244298000,-3.77115122900,6/7/2016,,87,-3.771151229-73.24244298
366155,601077,621340,NUEVO LIBERAL,MED_GPS,-73.24296209400,-3.76501863400,6/7/2016,,84,-3.765018634-73.242962094
365207,60025,652545,ISLA IQUITOS,MED_GPS,-73.23141713200,-3.73329537500,6/3/2016,,87,-3.733295375-73.231417132
373575,60137 SOLDADO ALFREDO VARGAS GUERRA,616557,PROGRESO,MED_GPS,-73.22921409700,-3.72539219700,6/3/2016,,90,-3.725392197-73.229214097
365274,60036 LUIS NAVARRO CAUPER,114022,MANACAMIRI,MED_GPS,-73.28456799800,-3.71741148600,5/30/2016,,90,-3.717411486-73.284567998
373429,60063,533642,SANTA MARIA DEL AMAZONAS,MED_GPS,-73.24040796700,-3.71144830600,6/3/2016,,84,-3.711448306-73.240407967
373764,61501,622849,ASTORIA,MED_GPS,-73.22302702800,-3.64489698100,5/2/2016,,89,-3.644896981-73.223027028
373518,60116,517784,PICURO YACU,MED_GPS,-73.25931318600,-3.64431345100,5/28/2016,,133,-3.644313451-73.259313186
373603,60196 AMELIA SOUZA FREITAS DE SALAZAR,215661,BARRIO FLORIDO,MED_GPS,-73.21123926200,-3.63797137100,5/29/2016,,95,-3.637971371-73.211239262
373698,60839,620551,CENTRO ARENAL,MED_GPS,-73.22034454400,-3.63498098300,5/28/2016,,131,-3.634980983-73.220344544
373448,60065,242209,SANTA CLARA DE OJEAL,MED_GPS,-73.19036375900,-3.62220928000,5/27/2016,,92,-3.62220928-73.190363759
374018,6010191,612438,SANTA CLARA III ZONA,MED_GPS,-73.18018846500,-3.61533287300,5/27/2016,,97,-3.615332873-73.180188465
373655,60222,112840,SANTA MARIA DE FATIMA,MED_GPS,-73.13177307300,-3.60279754500,5/27/2016,,88,-3.602797545-73.131773073
365976,60979,118350,TIMAREO I ZONA,MED_GPS,-73.18019511500,-3.86726061100,6/3/2016,,87,-3.867260611-73.180195115
366669,6010101,621482,LUPUNILLO,MED_GPS,-73.25431264900,-3.82991946300,6/6/2016,,93,-3.829919463-73.254312649
366853,6010279,620856,NUEVO SAN JOSE,MED_GPS,-73.23969259300,-3.76862093800,6/6/2016,,81,-3.768620938-73.239692593
366297,601384,532135,TRES UNIDOS,MED_GPS,-73.36708634200,-3.74159110400,5/30/2016,,133,-3.741591104-73.367086342
373410,60061,573404,SAN ANTONIO,MED_GPS,-73.24606966900,-3.73459444100,6/7/2016,,95,-3.734594441-73.246069669
365863,60896,531934,FRAY MARTIN DE PORRES,MED_GPS,-73.31643269600,-3.71510017500,5/30/2016,,93,-3.715100175-73.316432696
373900,601493,618315,NUEVA UNION,MED_GPS,-73.24338421100,-3.71214601200,6/3/2016,,86,-3.712146012-73.243384211
373641,60200,122582,NUEVO SAN FERNANDO,MED_GPS,-73.26739987300,-3.69545264400,5/31/2016,,88,-3.695452644-73.267399873
373636,60199,652680,SANTO TOMAS,MED_GPS,-73.25473292100,-3.69061700200,5/31/2016,,94,-3.690617002-73.254732921
373679,60799 BILINGUE INTERCULTURAL,514627,SAN ANDRES,MED_GPS,-73.29167170700,-3.68469898400,5/30/2016,,90,-3.684698984-73.291671707
373556,60131,618296,PROGRESO ZONA 2,MED_GPS,-73.34009271900,-3.67252658400,5/31/2016,,94,-3.672526584-73.340092719
373622,60198 - BILINGUE INTERCULTURAL,246228,EL MILAGRO,MED_GPS,-73.23994215500,-3.65671838000,5/29/2016,,100,-3.65671838-73.239942155
373943,601541,621986,SANTA CLOTILDE,MED_GPS,-73.24815939400,-3.65647770900,5/8/2016,,134,-3.656477709-73.248159394
373542,60126,620922,PORVENIR,MED_GPS,-73.29674777500,-3.65605886900,6/1/2016,,90,-3.656058869-73.296747775
374080,601679,619340,ANTONIO SCAVINO,MED_GPS,-73.20372918800,-3.65211333700,5/29/2016,,84,-3.652113337-73.203729188
374023,6010210,620742,INDEPENDENCIA,MED_GPS,-73.23578783400,-3.64775433800,5/28/2016,,134,-3.647754338-73.235787834
373801,601328,624907,COSTANERA,MED_GPS,-73.21597514400,-3.63940951300,5/28/2016,,120,-3.639409513-73.215975144
373924,601516,622316,NUEVO PARAISO,MED_GPS,-73.46461122700,-3.63652825200,6/1/2016,,103,-3.636528252-73.464611227
366532,601504,614726,NUEVA AMAZONIA,MED_GPS,-73.14062641400,-3.62823424900,5/27/2016,,87,-3.628234249-73.140626414
373617,60197,621267,SANTA CLARA ZONA 2,MED_GPS,-73.20505141000,-3.62754476500,5/29/2016,,92,-3.627544765-73.20505141
740502,60100,540063,SAN JUAN,MED_GPS,-73.40509342000,-3.61268737300,6/1/2016,,94,-3.612687373-73.40509342
373434,60064,212848,SANTA MARIA DE OJEAL,MED_GPS,-73.16939430800,-3.60703552900,5/27/2016,,89,-3.607035529-73.169394308
370299,601095,618699,NUEVO PERU,MED_GPS,-73.17889030100,-3.60105413300,5/27/2016,,100,-3.601054133-73.178890301
370275,601093,511314,SAN JUAN DE SINCHICUY,MED_GPS,-73.18274208700,-3.58613011900,5/27/2016,,90,-3.586130119-73.182742087
373995,6010159,614244,SANTO TOMAS DE CAPIRONAL,MED_GPS,-73.36167444000,-3.57853659100,6/2/2016,,94,-3.578536591-73.36167444
373919,601503 JOAQUIN ABENSUR ARAUJO,619371,SOL NACIENTE,MED_GPS,-73.24520791000,-3.56278666800,5/28/2016,,108,-3.562786668-73.24520791
374061,601560,626117,ALFONSO UGARTE,MED_GPS,-73.33156451000,-3.49796381300,6/2/2016,,112,-3.497963813-73.33156451
3882672,ARBOLITO 1,552999,NUEVO VERSALLES,MED_GPS,-73.26283115400,-3.72249155100,6/7/2016,,90,-3.722491551-73.262831154
2724413,LORITO 3,614244,SANTO TOMAS DE CAPIRONAL,MED_GPS,-73.36178279600,-3.57833964200,6/2/2016,,96,-3.578339642-73.361782796
3861393,MI MUNDO DE COLORES,527466,CONSTRUCCION,MED_GPS,-79.65110703300,-6.48123385200,7/9/2016,,112,-6.481233852-79.651107033
3861394,MIS TERNURAS,655176,MOCHUMANOS,MED_GPS,-79.69147210500,-6.47181458200,7/9/2016,,96,-6.471814582-79.691472105
2749119,LUCERITO DE COMEGEN,651714,COMEGEN,MED_GPS,-79.61940416300,-6.46963790800,7/8/2016,,122,-6.469637908-79.619404163
2749120,ESTRELLITAS DE JESUS,111178,MOTUPILLO,MED_GPS,-79.61244699700,-6.44933154200,7/7/2016,,132,-6.449331542-79.612446997
2749170,MARIA AUXILIADORA,613071,LA MANCHURIA,MED_GPS,-79.62664080400,-6.44686760500,7/8/2016,,124,-6.446867605-79.626640804
2678281,GOTITAS DEL SABER,117432,PUCHACA,MED_GPS,-79.48516902500,-6.37693211800,7/7/2016,,303,-6.376932118-79.485169025
2749160,INMACULADA CONCEPCION,533504,EL ALGARROBITO,MED_GPS,-79.46476802400,-6.37314243100,7/7/2016,,350,-6.373142431-79.464768024
2678289,VIRGEN DE LA PAZ,625291,PUCHACA ALTO,MED_GPS,-79.46370943200,-6.36740782500,7/7/2016,,417,-6.367407825-79.463709432
2678283,MI DULCE CASITA,526170,MAMAPAMPA,MED_GPS,-79.40836714700,-6.25823571200,7/10/2016,,1854,-6.258235712-79.408367147
2678263,SE├æOR DE LOS MILAGROS,512031,CHUYAPAMPA,MED_GPS,-79.32295998500,-6.25057771500,7/15/2016,,3189,-6.250577715-79.322959985
2720554,TIERNOS ANGELITOS,683107,CONCHUYNA,MED_GPS,-79.30676337500,-6.24297633700,7/15/2016,,3236,-6.242976337-79.306763375
2678246,CORAZONCITOS ALEGRES,623100,ATUNCERCA,MED_GPS,-79.37906931500,-6.23317563500,7/14/2016,,2555,-6.233175635-79.379069315
2720553,CORAZONCITOS ALEGRES,233744,TINGO,MED_GPS,-79.32597388400,-6.22771355000,7/15/2016,,2591,-6.22771355-79.325973884
2678228,SIEMPRE UNIDOS,113343,AYAMACHAY,MED_GPS,-79.37893266900,-6.22352124400,7/13/2016,,2842,-6.223521244-79.378932669
2678280,MARAVILLAS DE JESUS,215549,ANDAMARCA,MED_GPS,-79.45807937100,-6.21338776900,7/13/2016,,2826,-6.213387769-79.458079371
2678261,NUESTRA SE├æORA DE LA CANDELARIA,539006,PIEDRA COLORADA,MED_GPS,-79.34097709000,-6.20931148400,7/13/2016,,2997,-6.209311484-79.34097709
2678235,VIRGEN DE LA PAZ,530024,SUSUPAMPA,MED_GPS,-79.39466314100,-6.19865379100,7/13/2016,,3353,-6.198653791-79.394663141
2678269,ASUNCION DE LA VIRGEN,521386,KUTIQUIRU,MED_GPS,-79.32280206000,-6.18464517900,7/12/2016,,3294,-6.184645179-79.32280206
2678250,VIRGEN DEL ROSARIO,652671,SE├æOR DE LA HUMILDAD,MED_GPS,-79.38314828300,-6.16017005600,7/12/2016,,3467,-6.160170056-79.383148283
2720559,LUCERITOS DEL AMANECER,683108,SAN ROQUE,MED_GPS,-79.34475354400,-6.14110269400,7/12/2016,,3486,-6.141102694-79.344753544
2678230,NUEVO AMANCER,682798,KUTITORO,MED_GPS,-79.37673146800,-6.12502509100,7/12/2016,,3280,-6.125025091-79.376731468
2744246,CRISTO VIVE,236292,POZUZO,MED_GPS,-79.38162244500,-6.08690123200,7/11/2016,,3004,-6.086901232-79.381622445
2678232,CAMINEMOS JUNTOS HACIA ADELANTE,516259,RUMICHACA,MED_GPS,-79.35194254800,-6.07695496300,7/11/2016,,2966,-6.076954963-79.351942548
282877,11046,113778,TOTORA,MED_GPS,-79.30909436700,-6.21173520000,7/15/2016,,2793,-6.2117352-79.309094367
282740,CPED - 10791,112734,LA TRANCA,MED_GPS,-79.33140768800,-6.20950745900,7/15/2016,,3153,-6.209507459-79.331407688
282995,11203,539006,PIEDRA COLORADA,MED_GPS,-79.34097709000,-6.20931148400,7/13/2016,,2997,-6.209311484-79.34097709
527511,11604,230681,MUSHCALIN,MED_GPS,-79.42163013600,-6.20546900600,7/13/2016,,2929,-6.205469006-79.421630136
282900,11071,114059,PIEDRA PARADA,MED_GPS,-79.35450734700,-6.20081662600,7/11/2016,,3278,-6.200816626-79.354507347
282655,10242,530024,SUSUPAMPA,MED_GPS,-79.39546515300,-6.19877377600,7/13/2016,,3337,-6.198773776-79.395465153
282679,10248,241921,TUNGULA,MED_GPS,-79.30390933100,-6.19830426600,7/14/2016,,2993,-6.198304266-79.303909331
282783,10817,231417,MARAYHUACA,MED_GPS,-79.34053143100,-6.18479851600,7/12/2016,,3291,-6.184798516-79.340531431
283004,11235,521386,KUTIQUIRU,MED_GPS,-79.32280206000,-6.18464517900,7/12/2016,,3294,-6.184645179-79.32280206
282981,11195,652671,SE├æOR DE LA HUMILDAD,MED_GPS,-79.38314828300,-6.16017005600,7/12/2016,,3467,-6.160170056-79.383148283
282815,10907,533039,KONGACHA,MED_GPS,-79.35465384500,-6.14250680700,7/11/2016,,3336,-6.142506807-79.354653845
282759,10802,123236,CUEVA BLANCA,MED_GPS,-79.40015081500,-6.13042981200,7/12/2016,,3290,-6.130429812-79.400150815
282354,11118,535858,SAN CRISTOBAL,MED_GPS,-79.17119346500,-6.11574596800,5/18/2016,,1762,-6.115745968-79.171193465
282580,10087,110325,TOTORAS,MED_GPS,-79.37727616600,-6.11636924800,7/11/2016,,3099,-6.116369248-79.377276166
172015,11267,651710,PAMPA GRANDE,MED_GPS,-79.40826623200,-6.10858656600,7/12/2016,,3319,-6.108586566-79.408266232
282250,10876,541613,TOTORAS PAMPA VERDE,MED_GPS,-79.39631645700,-6.09344235200,7/11/2016,,2873,-6.093442352-79.396316457
282617,10091,531293,LLAMICA,MED_GPS,-79.34351759000,-6.09151487900,7/11/2016,,3232,-6.091514879-79.34351759
282269,10877,236292,POZUZO,MED_GPS,-79.38162244500,-6.08690123200,7/11/2016,,3004,-6.086901232-79.381622445
282863,11045,516259,RUMICHACA,MED_GPS,-79.35194254800,-6.07695496300,7/11/2016,,2966,-6.076954963-79.351942548
677100,LUIS FELIPE DE LAS CASAS,111178,MOTUPILLO,MED_GPS,-79.60542133100,-6.44500041400,7/7/2016,,139,-6.445000414-79.605421331
283297,315,530023,PATIVILCA,MED_GPS,-79.66462679300,-6.45657113300,7/8/2016,,109,-6.456571133-79.664626793
662684,384,216184,TRES PUENTES  B,MED_GPS,-79.65008877900,-6.45608514400,7/8/2016,,117,-6.456085144-79.650088779
662721,388,611220,SAN LUCAS,MED_GPS,-79.64828981700,-6.44575789700,7/8/2016,,127,-6.445757897-79.648289817
662815,397,111178,MOTUPILLO,MED_GPS,-79.60735677200,-6.44275928400,7/7/2016,,137,-6.442759284-79.607356772
081020,317,125576,PAPAYO  DESAGUADERO,MED_GPS,-79.58572531100,-6.42852235400,7/7/2016,,167,-6.428522354-79.585725311
662735,389,618732,LA LIBERTAD,MED_GPS,-79.49122018400,-6.39350147000,7/7/2016,,276,-6.39350147-79.491220184
662617,377,131920,LA U,MED_GPS,-79.48201367900,-6.38759366400,7/7/2016,,320,-6.387593664-79.482013679
677157,104,112597,INCAHUASI,MED_GPS,-79.31691320400,-6.23604623900,7/10/2016,,3013,-6.236046239-79.316913204
760509,459,548315,TOTORITA,MED_GPS,-79.30923020300,-6.23255570200,7/14/2016,,3074,-6.232555702-79.309230203
626323,309,111819,AMUSUY,MED_GPS,-79.41062483000,-6.22156216200,7/13/2016,,2707,-6.221562162-79.41062483
596726,333,110325,TOTORAS,MED_GPS,-79.37849773700,-6.11512504200,7/11/2016,,3099,-6.115125042-79.378497737
760439,453,651710,PAMPA GRANDE,MED_GPS,-79.40826623200,-6.10858656600,7/12/2016,,3319,-6.108586566-79.408266232
349095,SAGRADO CORAZON MICHEL,117234,CHAQUILLA,MED_GPS,-77.75231021600,-10.76170727500,8/21/2016,,52,-10.761707275-77.752310216
348915,21011 VIRGEN DE LOURDES,131844,BARRANCA,MED_GPS,-77.76378285300,-10.75596602300,8/25/2016,,47,-10.755966023-77.763782853
348920,CEBA - GUILLERMO E. BILLINGHURST,131844,BARRANCA,MED_GPS,-77.76367925000,-10.75462264200,8/25/2016,,48,-10.754622642-77.76367925
348802,20475,683083,EL OLIVAR,MED_GPS,-77.75741303800,-10.75165640600,8/23/2016,,64,-10.751656406-77.757413038
349203,FE Y ALEGRIA 35,683092,LAS GARDENIAS,MED_GPS,-77.75178899000,-10.74584391100,8/23/2016,,78,-10.745843911-77.75178899
348864,20528 VIRGEN DEL CARMEN,683094,PAMPA DE LARA,MED_GPS,-77.76124080000,-10.74488728900,8/23/2016,,60,-10.744887289-77.7612408
809643,SACO OLIVEROS,130539,SANTA CATALINA,MED_GPS,-77.76896989500,-10.74157697300,8/21/2016,,61,-10.741576973-77.768969895
349463,20987 01,116466,NARANJAL,MED_GPS,-77.75857764300,-10.52472757600,8/19/2016,,146,-10.524727576-77.758577643
349420,20532,114692,HUARICANGA,MED_GPS,-77.74955252100,-10.48773475500,8/19/2016,,195,-10.487734755-77.749552521
349444,20860,512107,SAUCE GRANDE,MED_GPS,-77.72681641400,-10.43336113100,8/19/2016,,263,-10.433361131-77.726816414
349571,20834,111460,SHAURA,MED_GPS,-77.70831159300,-10.40976780700,8/19/2016,,343,-10.409767807-77.708311593
349439,20800,119071,ANTA,MED_GPS,-77.69558238200,-10.39644121900,8/19/2016,,361,-10.396441219-77.695582382
802953,ISMAELILLO,131844,BARRANCA,MED_GPS,-77.76801369100,-10.75143375400,8/25/2016,,46,-10.751433754-77.768013691
348798,661,683084,MANUEL SEOANE,MED_GPS,-77.75359051100,-10.75106607000,8/23/2016,,73,-10.75106607-77.753590511
791681,GUSTAVO TELLO VELARDE,683086,GUSTAVO TELLO VELARDE,MED_GPS,-77.76913115500,-10.75034328800,8/23/2016,,50,-10.750343288-77.769131155
348717,322,683088,INDEPENDENCIA,MED_GPS,-77.76527173800,-10.74921046600,8/23/2016,,54,-10.749210466-77.765271738
348736,446,683087,ARAMAYO,MED_GPS,-77.75770169100,-10.74923715500,8/23/2016,,64,-10.749237155-77.757701691
349043,663,683090,LOS PINOS,MED_GPS,-77.75273230100,-10.74821159200,8/23/2016,,74,-10.748211592-77.752732301
348741,493 MARIA DE LOS ANGELES,683094,PAMPA DE LARA,MED_GPS,-77.76253738600,-10.74510703600,8/23/2016,,61,-10.745107036-77.762537386
778905,CASTILLO DE JUGUETES,654356,LAS CASUARINAS,MED_GPS,-77.73969349400,-10.74320980700,8/22/2016,,122,-10.743209807-77.739693494
791695,SAN MARTINCITO,683095,SAN MARTIN ALTO,MED_GPS,-77.73026140400,-10.74170459200,8/24/2016,,150,-10.741704592-77.730261404
348779,657,130539,SANTA CATALINA,MED_GPS,-77.77081528600,-10.73976631500,8/21/2016,,66,-10.739766315-77.770815286
637053,VICTOR RAUL HAYA DE LA TORRE,616725,VICTOR RAUL HAYA DE LA TORRE,MED_GPS,-77.74673018500,-10.72875400800,8/22/2016,,149,-10.728754008-77.746730185
348755,502,519727,LA FLORIDA,MED_GPS,-77.77386649000,-10.72723209300,8/20/2016,,72,-10.727232093-77.77386649
637048,LOS ARENALES,626617,LOS ARENALES,MED_GPS,-77.74493065700,-10.72351275400,8/22/2016,,139,-10.723512754-77.744930657
349689,491,611070,SIMON BOLIVAR,MED_GPS,-77.77488132000,-10.71980593600,8/19/2016,,45,-10.719805936-77.77488132
349694,645,218787,SIMON BOLIVAR (GALPON),MED_GPS,-77.78404224400,-10.70442746400,8/19/2016,,70,-10.704427464-77.784042244
739160,668,554414,BUENOS AIRES,MED_GPS,-77.76934761800,-10.69502631700,8/25/2016,,132,-10.695026317-77.769347618
791662,NUEVO PARAISO,683098,NUEVO PARAISO,MED_GPS,-77.77157692100,-10.69387181200,8/25/2016,,124,-10.693871812-77.771576921
349364,539,238816,LAS DELICIAS,MED_GPS,-77.82691834600,-10.68276402500,8/21/2016,,11,-10.682764025-77.826918346
739221,MARIA DE LOS ANGELES,568759,EXPERIMENTOS,MED_GPS,-77.81771996100,-10.67605725700,8/24/2016,,19,-10.676057257-77.817719961
349397,06,568759,EXPERIMENTOS,MED_GPS,-77.81765372800,-10.67531255400,8/24/2016,,21,-10.675312554-77.817653728
349340,505,116627,EL BOSQUE,MED_GPS,-77.80227937500,-10.67415443100,8/21/2016,,42,-10.674154431-77.802279375
553109,RAYITO DE ESPERANZA,683103,MIGUEL GRAU,MED_GPS,-77.81414987700,-10.67340634400,8/21/2016,,22,-10.673406344-77.814149877
349378,542,571366,NUEVA ESPERANZA,MED_GPS,-77.82598115300,-10.67159488600,8/24/2016,,12,-10.671594886-77.825981153
349670,474,121601,HUAYTO,MED_GPS,-77.65676208900,-10.65856151800,8/20/2016,,279,-10.658561518-77.656762089
349910,JOSE PARDO Y BARREDA,121601,HUAYTO,MED_GPS,-77.65725001600,-10.66015839200,8/20/2016,,276,-10.660158392-77.657250016
349514,JOSE MARIA ARGUEDAS,220757,CERRO BLANCO,MED_GPS,-77.76872563300,-10.60882828300,8/19/2016,,52,-10.608828283-77.768725633
349024,FERNANDO CARBAJAL SEGURA,683081,SAN ILDEFONSO,MED_GPS,-77.75904549500,-10.75836434300,8/23/2016,,53,-10.758364343-77.759045495
349552,SAN MARTIN DE PORRAS,558721,SAN PATRICIO,MED_GPS,-77.81438206800,-10.67570972200,8/24/2016,,21,-10.675709722-77.814382068
348958,21581 DECISION CAMPESINA,683096,LAS PALMERAS III,MED_GPS,-77.76578486400,-10.74094945900,8/22/2016,,65,-10.740949459-77.765784864
779523,NEUMANN COLLEGE,683096,LAS PALMERAS III,MED_GPS,-77.76645021400,-10.74057583900,8/22/2016,,64,-10.740575839-77.766450214
348835,20480 SANTA CATALINA,130539,SANTA CATALINA,MED_GPS,-77.77115776700,-10.73935310500,8/21/2016,,63,-10.739353105-77.771157767
348859,20527,550531,CRUZ DEL RIO,MED_GPS,-77.77810881500,-10.73021165400,8/20/2016,,67,-10.730211654-77.778108815
763428,NI├æOS DEL FUTURO,683097,LA ENSENADA,MED_GPS,-77.74737497200,-10.72751872700,8/22/2016,,132,-10.727518727-77.747374972
348963,21606,234240,POTAO,MED_GPS,-77.74094698400,-10.71432006100,8/22/2016,,123,-10.714320061-77.740946984
349769,20832,552597,EL PORVENIR,MED_GPS,-77.77300839400,-10.68996171100,8/25/2016,,103,-10.689961711-77.773008394
349401,20503 JOSE CARLOS MARIATEGUI,683100,TRES PUENTES,MED_GPS,-77.81816503000,-10.68034436400,8/24/2016,,17,-10.680344364-77.81816503
349482,21577,558721,SAN PATRICIO,MED_GPS,-77.81516474500,-10.67639557600,8/24/2016,,21,-10.676395576-77.815164745
349496,21578,568759,EXPERIMENTOS,MED_GPS,-77.81876002000,-10.67523662800,8/24/2016,,18,-10.675236628-77.81876002
349509,21627,116627,EL BOSQUE,MED_GPS,-77.80132464300,-10.67442497900,8/21/2016,,45,-10.674424979-77.801324643
349849,21620 VIRGEN DE GUADALUPE,245105,PROVIDENCIA,MED_GPS,-77.71049429200,-10.67404250700,8/21/2016,,196,-10.674042507-77.710494292
349458,20987 VICTOR RAUL HAYA DE LA TORRE,683106,ALTO PERU,MED_GPS,-77.81484465200,-10.67059684700,8/24/2016,,21,-10.670596847-77.814844652
349811,21579 ROSA SOTO DE MANRRIQUE,123129,UPACA,MED_GPS,-77.73639528800,-10.67086882100,8/20/2016,,160,-10.670868821-77.736395288
349806,21576,234376,LAS VEGAS,MED_GPS,-77.60145686700,-10.66277676000,8/20/2016,,367,-10.66277676-77.601456867
349793,21575,121601,HUAYTO,MED_GPS,-77.65737427800,-10.65847861800,8/20/2016,,276,-10.658478618-77.657374278
349868,21629,310019,LA PAZ,MED_GPS,-77.61620428900,-10.65405030500,8/20/2016,,365,-10.654050305-77.616204289
349750,20506 JOSE A ENCINAS FRANCO,234620,PAMPAS SAN JOSE,MED_GPS,-77.70926768000,-10.65321545800,8/20/2016,,215,-10.653215458-77.70926768
349830,21584,243762,SAN MIGUEL,MED_GPS,-77.68870077200,-10.62232903700,8/20/2016,,286,-10.622329037-77.688700772
349477,21573,220757,CERRO BLANCO,MED_GPS,-77.76759386700,-10.60899635000,8/19/2016,,55,-10.60899635-77.767593867
0402241,RAYITOS DE SOL,120011,PUERTO CHICO,MED_GPS,-77.76076405100,-10.76668862800,8/21/2016,,9,-10.766688628-77.760764051
0407854,LOS AMIGUITOS DE HOY,683085,MIGUEL GRAU,MED_GPS,-77.75416339400,-10.75207645000,8/23/2016,,71,-10.75207645-77.754163394
0395527,MIGUEL GRAU A,683085,MIGUEL GRAU,MED_GPS,-77.75429095200,-10.75123241100,8/23/2016,,71,-10.751232411-77.754290952
0395536,SAN MATEO,683091,SAN MATEO,MED_GPS,-77.75469404500,-10.74752745500,8/25/2016,,73,-10.747527455-77.754694045
0395529,ATARGEA ALTA,310747,ATARJEA ALTA,MED_GPS,-77.75681596000,-10.74224701400,8/22/2016,,70,-10.742247014-77.75681596
0407863,PEQUE├æOS TALENTOS,130291,HACIENDA EL MOLINO,MED_GPS,-77.74841187400,-10.73358340500,8/22/2016,,101,-10.733583405-77.748411874
0407820,CRUZ DEL RIO,550531,CRUZ DEL RIO,MED_GPS,-77.77810881500,-10.73021165400,8/20/2016,,67,-10.730211654-77.778108815
0407819,ARGUAY,223231,ARGUAY,MED_GPS,-77.76593958300,-10.72903817600,8/22/2016,,81,-10.729038176-77.765939583
0402246,NUEVO MUNDO,234240,POTAO,MED_GPS,-77.74072116300,-10.71348816600,8/22/2016,,129,-10.713488166-77.740721163
3876816,MILAGRITOS DE DIOS,124791,EL MILAGRO,MED_GPS,-77.78585946100,-10.71235586600,8/20/2016,,58,-10.712355866-77.785859461
0404526,CHANANA,555477,CHANANA,MED_GPS,-77.77911911600,-10.69776711600,8/25/2016,,87,-10.697767116-77.779119116
3876812,PASITOS DE DULZURA,552597,EL PORVENIR,MED_GPS,-77.77435593300,-10.69450751200,8/25/2016,,106,-10.694507512-77.774355933
0407839,LOS ANGELITOS,552597,EL PORVENIR,MED_GPS,-77.77600548500,-10.69338794900,8/25/2016,,93,-10.693387949-77.776005485
0420437,HAPPY BABY,552597,EL PORVENIR,MED_GPS,-77.77300839400,-10.68996171100,8/25/2016,,103,-10.689961711-77.773008394
0404539,ARCA DE NOE,683099,COSTA VERDE,MED_GPS,-77.76572395000,-10.68968576400,8/26/2016,,178,-10.689685764-77.76572395
0404513,JOSE BALTA A,683101,JOSE BALTA,MED_GPS,-77.81931942900,-10.67765990100,8/24/2016,,20,-10.677659901-77.819319429
0420420,EL CARMEN,120996,EL CARMEN,MED_GPS,-77.80650001400,-10.67643920200,8/21/2016,,36,-10.676439202-77.806500014
0402242,RAYITOS DEL SABER,683105,LA UNION,MED_GPS,-77.82147115100,-10.67239718900,8/25/2016,,18,-10.672397189-77.821471151
0420409,ALTO PERU,683106,ALTO PERU,MED_GPS,-77.81396194800,-10.67204119600,8/24/2016,,23,-10.672041196-77.813961948
3876821,EMMI PIKLER,123129,UPACA,MED_GPS,-77.73660103100,-10.67130248400,8/20/2016,,160,-10.671302484-77.736601031
0402243,MIS PEQUE├æITOS,683106,ALTO PERU,MED_GPS,-77.81484465200,-10.67059684700,8/24/2016,,21,-10.670596847-77.814844652
0402237,SONRISAS DE AMOR,617220,SAN PEDRO,MED_GPS,-77.81699053100,-10.66191395500,8/19/2016,,24,-10.661913955-77.816990531
0404529,LAS VEGAS,234376,LAS VEGAS,MED_GPS,-77.60145686700,-10.66277676000,8/20/2016,,367,-10.66277676-77.601456867
3876813,ESTRELLITA DEL AMANECER,125451,SAN PABLO,MED_GPS,-77.81529883800,-10.66010251600,8/19/2016,,30,-10.660102516-77.815298838
0398640,CARITAS DE ANGEL,121601,HUAYTO,MED_GPS,-77.65641301200,-10.65938667400,8/20/2016,,278,-10.659386674-77.656413012
3876824,SEMILLITAS DE AMOR,234620,PAMPAS SAN JOSE,MED_GPS,-77.70989995300,-10.65489225200,8/20/2016,,211,-10.654892252-77.709899953
0420441,LOS NI├æOS DE JESUS,653378,BELLA ESPERANZA,MED_GPS,-77.70036875900,-10.65405577600,8/20/2016,,244,-10.654055776-77.700368759
0420423,LA PAZ,310019,LA PAZ,MED_GPS,-77.61603542400,-10.65459926000,8/20/2016,,361,-10.65459926-77.616035424
3876814,LOS AMIGUITOS,226009,LAMPAY,MED_GPS,-77.80401400900,-10.63946076100,8/19/2016,,31,-10.639460761-77.804014009
0398630,SAN MIGUEL DE OTOPONGO,243762,SAN MIGUEL,MED_GPS,-77.68870077200,-10.62232903700,8/20/2016,,286,-10.622329037-77.688700772
0404537,LOS ANGELITOS DE DIOS,220757,CERRO BLANCO,MED_GPS,-77.76761306400,-10.60717124600,8/19/2016,,64,-10.607171246-77.767613064
3876815,NARANJITA DULCE,116466,NARANJAL,MED_GPS,-77.75857764300,-10.52472757600,8/19/2016,,146,-10.524727576-77.758577643
3876817,MI MUNDO MAGICO,220346,MONTE GRANDE,MED_GPS,-77.73384443000,-10.45435990800,8/19/2016,,230,-10.454359908-77.73384443
0404534,TUPAC AMARU SHAURA,111460,SHAURA,MED_GPS,-77.70831159300,-10.40976780700,8/19/2016,,343,-10.409767807-77.708311593
0404531,ANTA,119071,ANTA,MED_GPS,-77.69558238200,-10.39644121900,8/19/2016,,361,-10.396441219-77.695582382
360498,20337,120174,PARAN,MED_GPS,-77.02750446500,-11.05131655000,8/29/2016,,2158,-11.05131655-77.027504465
360455,358,118205,SANTO DOMINGO DE APACHE,MED_GPS,-76.95903255800,-11.05137008400,8/24/2016,,3593,-11.051370084-76.959032558
360587,20118,226604,LACSANGA,MED_GPS,-76.99643508800,-11.01690166700,8/29/2016,,2960,-11.016901667-76.996435088
360629,20928,126396,LA PERLA,MED_GPS,-77.00786043200,-11.00041447700,8/29/2016,,2636,-11.000414477-77.007860432
360592,20083,130108,MUZGA,MED_GPS,-76.99655918100,-10.97634518900,5/26/2016,,2737,-10.976345189-76.996559181
3070420,MIS PEQUE├æOS VALIENTES,128465,SANTA CRUZ,MED_GPS,-76.92920103500,-11.05963382900,8/24/2016,,3278,-11.059633829-76.929201035
356279,20455 ANDRES AVELINO CACERES,117357,ACOTAMA,MED_GPS,-77.06436635600,-11.14086718900,8/25/2016,,1393,-11.140867189-77.064366356
785821,HAPPY KIDS,129683,CASA BLANCA,MED_GPS,-77.19123590900,-11.12961683200,8/25/2016,,670,-11.129616832-77.191235909
763329,NI├æO MANUELITO,542122,PICHUPAMPA,MED_GPS,-76.99076913600,-11.10002700300,8/24/2016,,2266,-11.100027003-76.990769136
360040,CORAZON DE JESUS,119831,CRUZ BLANCA,MED_GPS,-77.59597637200,-11.09157732400,8/25/2016,,64,-11.091577324-77.595976372
360573,20116 FERMIN ARSENIO SAENZ MORALES,113791,SAN ANDRES DE HUACAR,MED_GPS,-76.95353927500,-10.95650412700,8/26/2016,,3032,-10.956504127-76.953539275
361855,20982,119664,QUILCA,MED_GPS,-77.09579489500,-10.95377005500,8/23/2016,,1801,-10.953770055-77.095794895
360554,20870,534513,ULANCAY,MED_GPS,-76.95215472400,-10.93085992500,8/25/2016,,2521,-10.930859925-76.952154724
360568,20115,246574,SAN PABLO DE YARANGA,MED_GPS,-76.95056036000,-10.92482652700,8/26/2016,,2422,-10.924826527-76.95056036
361902,20993,654098,SAN MIGUEL DE BELLAVISTA,MED_GPS,-77.10812161000,-10.90841754300,8/23/2016,,2409,-10.908417543-77.10812161
361841,20047 SANTO TOMAS,133404,COCHAMARCA,MED_GPS,-77.12816822800,-10.86300993700,8/23/2016,,3412,-10.863009937-77.128168228
691318,SAN JOSE DE TIWINZA,653544,TIWINZA,MED_GPS,-77.33686831800,-11.26784550100,7/15/2016,,436,-11.267845501-77.336868318
361006,21001 LUIS PARDO,523234,SANTA ANITA / LUIS PARDO,MED_GPS,-77.36046747000,-11.25181293900,7/15/2016,,415,-11.251812939-77.36046747
742704,DIOS ES AMOR,225252,9 DE OCTUBRE,MED_GPS,-77.41485833300,-11.21646852300,7/15/2016,,346,-11.216468523-77.414858333
360931,20862,543239,SANTA CRUZ DE LA TABLADA,MED_GPS,-77.48306106400,-11.18994889800,7/13/2016,,278,-11.189948898-77.483061064
739495,ESTRELLITA DEL SABER,655416,AGUA DULCE,MED_GPS,-77.60135611200,-11.12665367700,7/13/2016,,83,-11.126653677-77.601356112
795165,RAYITO DE DULZURA,683138,OLLANTA HUMALA,MED_GPS,-77.58462378500,-11.11444585100,7/13/2016,,126,-11.114445851-77.584623785
745302,MANITOS CREATIVAS,683140,LOS JARDINES,MED_GPS,-77.59619182600,-11.10767455500,7/20/2016,,52,-11.107674555-77.596191826
3094809,MI CASITA DEL SABER,118735,TAMBON,MED_GPS,-77.16881279000,-10.73003810200,7/19/2016,,3341,-10.730038102-77.16881279
3094814,HUELLITAS DEL SABER,123720,GANTUYOJ,MED_GPS,-77.14390163900,-10.72608936900,7/19/2016,,3586,-10.726089369-77.143901639
3881104,MIS PEQUE├æOS QUERUBINES,683182,SOL Y MAR,MED_GPS,-77.58171497800,-11.12125550400,7/12/2016,,115,-11.121255504-77.581714978
3881110,GOTITAS CRISTALINAS,545968,SAN ANTONIO,MED_GPS,-77.58891879700,-11.11389389500,7/13/2016,,88,-11.113893895-77.588918797
3881118,PULGARCITOS,683141,LOS LIBERTADORES,MED_GPS,-77.59352168700,-11.06933271900,7/14/2016,,67,-11.069332719-77.593521687
3881122,EXPLORADORES,111658,TUPAC AMARU,MED_GPS,-77.59765326700,-11.01086131200,7/14/2016,,120,-11.010861312-77.597653267
3880397,FRUTILLITAS,126439,AMBAR,MED_GPS,-77.27238384900,-10.75668832500,7/18/2016,,2071,-10.756688325-77.272383849
355897,20881 SANTISIMA VIRGEN MARIA,549758,BUENA VISTA,MED_GPS,-77.25324663100,-11.53895489800,9/2/2016,,92,-11.538954898-77.253246631
0105461,CARITAS FELICES,683127,JUAN VELASCO ALVARADO,MED_GPS,-77.26368851800,-11.57946755700,9/5/2016,,38,-11.579467557-77.263688518
0127512,CIELO AZUL,549758,BUENA VISTA,MED_GPS,-77.25324663100,-11.53895489800,9/2/2016,,92,-11.538954898-77.253246631
0127521,NI├æOS DEL NAZARENO,123134,CHANCAYLLO,MED_GPS,-77.30262293800,-11.48824713000,9/1/2016,,41,-11.48824713-77.302622938
0127524,4 DE JUNIO,652906,4 DE JUNIO,MED_GPS,-77.31004479900,-11.47590997200,9/1/2016,,60,-11.475909972-77.310044799
355939,20803 ROSA DE SANTA MARIA,111155,LAS SALINAS ALTA,MED_GPS,-77.24592364300,-11.60320307300,9/2/2016,,27,-11.603203073-77.245923643
356057,MIRAMAR,559579,MIRAMAR,MED_GPS,-77.25565901100,-11.59277965100,9/2/2016,,47,-11.592779651-77.255659011
356024,21008 LUIS ALBERTO DE LAS CASAS A.,125122,CHANCAY,MED_GPS,-77.27068048200,-11.56896138400,8/31/2016,,38,-11.568961384-77.270680482
355920,20390 HORTENCIA DULANTO DE LAS CASA,125122,CHANCAY,MED_GPS,-77.27164774700,-11.56763980700,8/31/2016,,40,-11.567639807-77.271647747
734247,HAPPY BABY,563987,ANDRES DE LOS REYES,MED_GPS,-77.27182086500,-11.56490021300,9/6/2016,,42,-11.564900213-77.271820865
3394232,LOS MIRAFLORINOS,230344,ISLA SAN LORENZO,MED_GPS,-74.45457519200,-8.44801742200,6/7/2016,,146,-8.448017422-74.454575192
1595201,LOS SOLIDARIOS I,683186,SANTA TERESITA,MED_GPS,-74.56855398300,-8.42986853400,5/30/2016,,153,-8.429868534-74.568553983
1675916,LOS CONEJITOS,683189,NUEVO PUCALLPA,MED_GPS,-74.64634573500,-8.41723873600,5/29/2016,,152,-8.417238736-74.646345735
1643012,LOS HONESTOS,683187,VIRGEN DE LA PURISIMA,MED_GPS,-74.55822749400,-8.41528176400,6/8/2016,,156,-8.415281764-74.558227494
1643002,LA ALEGRIA,683188,8 DE DICIEMBRE,MED_GPS,-74.55676984300,-8.41424174500,6/8/2016,,156,-8.414241745-74.556769843
3394222,LA ALEGRIA,683190,ASOCIACION CIVIL DAMNIFICADOS DE UCAYALI,MED_GPS,-74.59576569300,-8.41183343600,5/30/2016,,154,-8.411833436-74.595765693
1683310,LA AMISTAD,683191,NUEVA AMAZONIA,MED_GPS,-74.58912420400,-8.40758046100,6/8/2016,,151,-8.407580461-74.589124204
1615810,LOS RESPONSABLES II,683192,26 DE MARZO,MED_GPS,-74.54586205300,-8.40347739200,6/9/2016,,156,-8.403477392-74.545862053
3862137,VIRGEN MARIA,683193,23 DE JULIO,MED_GPS,-74.58429780000,-8.40060279200,6/8/2016,,154,-8.400602792-74.5842978
1615801,LOS CONEJITOS,556095,11 DE JULIO,MED_GPS,-74.53642531300,-8.39126818400,6/9/2016,,155,-8.391268184-74.536425313
3862152,LOS MARAVILLOSOS VIII,556718,3 DE DICIEMBRE,MED_GPS,-74.68760458600,-8.38745513800,5/29/2016,,150,-8.387455138-74.687604586
3862151,LOS MARAVILLOSOS VII,556718,3 DE DICIEMBRE,MED_GPS,-74.68883732400,-8.38383077500,5/29/2016,,149,-8.383830775-74.688837324
1709603,LOS GATITOS,556718,3 DE DICIEMBRE,MED_GPS,-74.68789203400,-8.38351073100,5/29/2016,,150,-8.383510731-74.687892034
1634612,LAS SEMILLITAS X,517714,NUEVA ESPERANZA,MED_GPS,-74.54548521200,-8.37524175500,6/8/2016,,153,-8.375241755-74.545485212
3885901,LOS CARI├æOSITOS I,683195,EL ARENAL,MED_GPS,-74.53600048900,-8.37419144500,5/30/2016,,153,-8.374191445-74.536000489
1634601,LAS SEMILLITAS I,683196,FRAY MARTIN,MED_GPS,-74.54086927300,-8.37189244100,6/8/2016,,148,-8.371892441-74.540869273
1634607,LAS SEMILLITAS VII,536378,MIRAFLORES,MED_GPS,-74.54468633400,-8.37177113000,6/8/2016,,149,-8.37177113-74.544686334
1634603,LAS SEMILLITAS III,683196,FRAY MARTIN,MED_GPS,-74.54593453700,-8.37155458000,6/8/2016,,147,-8.37155458-74.545934537
3885907,LOS CARI├æOSITOS VII,683195,EL ARENAL,MED_GPS,-74.53720034500,-8.37108495600,5/30/2016,,153,-8.371084956-74.537200345
3885909,LOS CARI├æOSITOS IX,683195,EL ARENAL,MED_GPS,-74.53392183100,-8.37006805100,5/30/2016,,149,-8.370068051-74.533921831
3885911,LOS CARI├æOSITOS XI,683195,EL ARENAL,MED_GPS,-74.53121088500,-8.36990112900,5/30/2016,,146,-8.369901129-74.531210885
1634613,LAS SEMILLITAS II,683196,FRAY MARTIN,MED_GPS,-74.54293200500,-8.36984249700,6/8/2016,,145,-8.369842497-74.542932005
3885905,LOS CARI├æOSITOS V,683195,EL ARENAL,MED_GPS,-74.53828699200,-8.36923017100,5/30/2016,,149,-8.369230171-74.538286992
3885915,LOS CARI├æOSITOS X,683195,EL ARENAL,MED_GPS,-74.53769000800,-8.36868043500,5/30/2016,,148,-8.368680435-74.537690008
3885908,LOS CARI├æOSITOS VIII,683195,EL ARENAL,MED_GPS,-74.53634967800,-8.36846721000,5/30/2016,,146,-8.36846721-74.536349678
3885914,LOS CARI├æOSITOS II,683195,EL ARENAL,MED_GPS,-74.53721643600,-8.36822581700,5/30/2016,,149,-8.368225817-74.537216436
3885904,LOS CARI├æOSITOS IV,683195,EL ARENAL,MED_GPS,-74.53622420800,-8.36704245900,5/30/2016,,145,-8.367042459-74.536224208
3885906,LOS CARI├æOSITOS VI,683195,EL ARENAL,MED_GPS,-74.53426422300,-8.36702658700,5/30/2016,,149,-8.367026587-74.534264223
3885903,LOS CARI├æOSITOS III,683195,EL ARENAL,MED_GPS,-74.54221489000,-8.36482524800,5/30/2016,,147,-8.364825248-74.54221489
1634606,LAS SEMILLITAS VI,683198,JOSE OLAYA,MED_GPS,-74.54957694700,-8.36340457200,6/8/2016,,148,-8.363404572-74.549576947
3394207,LOS RESPONSABLES,532834,MI PERU,MED_GPS,-74.51203338200,-8.34847816800,6/4/2016,,155,-8.348478168-74.512033382
3862145,DIVINO NI├æO,111253,FLOR NACIENTE,MED_GPS,-74.60713332700,-8.07468994000,6/5/2016,,137,-8.07468994-74.607133327
494030,BELLAVISTA,218743,BELLAVISTA,MED_GPS,-74.60877856300,-8.39946375800,6/18/2016,,155,-8.399463758-74.608778563
803759,SUDAMERIZ,222669,YARINACOCHA,MED_GPS,-74.54772845600,-8.38483486300,6/8/2016,,158,-8.384834863-74.547728456
496821,65049,655616,SANTA TERESITA,MED_GPS,-74.79268607700,-8.57533966400,5/27/2016,,203,-8.575339664-74.792686077
496492,64596,513348,MANCO CAPAC,MED_GPS,-74.80262832900,-8.55694051200,5/28/2016,,203,-8.556940512-74.802628329
559210,65180,649819,SAN CRISTOBAL DE AGUA BLANCA,MED_GPS,-74.72811804100,-8.53912872300,5/29/2016,,164,-8.539128723-74.728118041
534031,65202,682699,NUEVA UNION,MED_GPS,-74.70883987400,-8.45938565900,6/10/2016,,150,-8.459385659-74.708839874
494544,64579,682365,JOSE CARLOS MARIATEGUI,MED_GPS,-74.12273808000,-8.45247145900,6/1/2016,,155,-8.452471459-74.12273808
075463,64343,230344,ISLA SAN LORENZO,MED_GPS,-74.45457519200,-8.44801742200,6/7/2016,,146,-8.448017422-74.454575192
534192,65191-B,652753,SOL DEL ORIENTE,MED_GPS,-74.24960811900,-8.42712630700,6/2/2016,,149,-8.427126307-74.249608119
495058,64864,219226,SARGENTO LORES,MED_GPS,-73.98434576000,-8.41887668800,6/1/2016,,164,-8.418876688-73.98434576
553717,65175,556718,3 DE DICIEMBRE,MED_GPS,-74.68776910900,-8.38161474900,5/29/2016,,152,-8.381614749-74.687769109
496307,326,622043,LA FRONTERA,MED_GPS,-74.96073669300,-8.64605321400,5/27/2016,,200,-8.646053214-74.960736693
768850,670,131034,CAMPO VERDE,MED_GPS,-74.79765000900,-8.47287031800,6/10/2016,,183,-8.472870318-74.797650009
088900,LATINO AMERICANO,683194,ABANCAY,MED_GPS,-74.54338060300,-8.38315651100,6/8/2016,,160,-8.383156511-74.543380603
738085,617,683197,CORAZON DE YARINA,MED_GPS,-74.59478280500,-8.36980589200,6/10/2016,,155,-8.369805892-74.594782805
717894,CLAUPIER RESSH,571033,NUEVO PARAISO,MED_GPS,-74.55013756100,-8.37270449900,6/9/2016,,154,-8.372704499-74.550137561
430632,CEBA - VESPERTINO MUNICIPAL DE BUENOS AIRES,133118,BUENOS AIRES,MED_GPS,-79.96718697900,-5.26779060800,6/4/2016,,138,-5.267790608-79.967186979
432179,14587,657692,HUALCAS ALTO,MED_GPS,-79.70966333300,-5.51872282000,6/7/2016,,297,-5.51872282-79.709663333
432264,15431,111061,MAMAYACO,MED_GPS,-79.71245534000,-5.49405262400,6/7/2016,,268,-5.494052624-79.71245534
432240,15375,112282,HORNOPAMPA,MED_GPS,-79.73402964500,-5.47497277100,6/7/2016,,254,-5.474972771-79.734029645
432216,14663,125143,SERRAN,MED_GPS,-79.77778553400,-5.43394209100,6/7/2016,,218,-5.433942091-79.777785534
432202,14662,113575,PALO BLANCO,MED_GPS,-79.79976762900,-5.40571658200,6/7/2016,,192,-5.405716582-79.799767629
432198,14658,530080,LA ALBERCA,MED_GPS,-79.81925521900,-5.37787480200,6/7/2016,,182,-5.377874802-79.819255219
432235,15165,126801,MALACASI,MED_GPS,-79.85666868300,-5.34478717200,6/6/2016,,161,-5.344787172-79.856668683
432184,14654,120711,SALITRAL,MED_GPS,-79.83130994500,-5.34131870500,6/7/2016,,158,-5.341318705-79.831309945
432283,20182,115166,POLLUCO,MED_GPS,-79.88219727500,-5.33547643400,6/6/2016,,148,-5.335476434-79.882197275
432513,15424,126405,LOS CHARANES,MED_GPS,-79.70129858600,-5.33023243700,6/8/2016,,433,-5.330232437-79.701298586
430694,14642,110564,RIO SECO,MED_GPS,-79.92748858900,-5.32920756800,6/4/2016,,137,-5.329207568-79.927488589
432607,20212,529926,MIGUELPAMPA,MED_GPS,-79.74232300200,-5.32800954400,6/8/2016,,227,-5.328009544-79.742323002
432462,RICARDO PALMA SORIANO,124310,DOTOR,MED_GPS,-79.71779178800,-5.32607319400,6/8/2016,,250,-5.326073194-79.717791788
432221,14669,119818,PIEDRA BLANCA,MED_GPS,-79.81692592200,-5.32487336100,6/7/2016,,167,-5.324873361-79.816925922
537765,20809,626204,HUAROQUISPAMPA,MED_GPS,-79.86767657400,-5.32435914400,6/6/2016,,160,-5.324359144-79.867676574
432259,15393,120430,TORTOLA,MED_GPS,-79.84059944800,-5.32236596900,6/6/2016,,162,-5.322365969-79.840599448
432278,15438,126492,MANGAMANGUILLA,MED_GPS,-79.85917902600,-5.32139668200,6/6/2016,,154,-5.321396682-79.859179026
432565,20105,524494,ALAN GARCIA,MED_GPS,-79.79786977200,-5.32085413900,6/9/2016,,186,-5.320854139-79.797869772
432645,JOSE CARLOS MARIATEGUI,114122,HACIENDA BIGOTE,MED_GPS,-79.78893336200,-5.31789898000,6/9/2016,,181,-5.31789898-79.788933362
432527,15462,619514,CARDAL,MED_GPS,-79.70641915100,-5.31733888800,6/8/2016,,260,-5.317338888-79.706419151
432631,JOSE MARIA ARGUEDAS,129654,QUEMAZON,MED_GPS,-79.72186672200,-5.31380944900,6/8/2016,,242,-5.313809449-79.721866722
432570,20167,547954,MANZANARES,MED_GPS,-79.76040360600,-5.31379128500,6/8/2016,,206,-5.313791285-79.760403606
432612,20228,622062,BADO DE GARZAS,MED_GPS,-79.75408323900,-5.31226090400,6/9/2016,,216,-5.312260904-79.754083239
432476,15259,526857,FAICAL,MED_GPS,-79.73058781200,-5.31146235500,6/8/2016,,232,-5.311462355-79.730587812
430665,14639,121066,MORROPONCITO,MED_GPS,-79.92160617300,-5.31142577600,6/4/2016,,135,-5.311425776-79.921606173
431066,14681,124248,TOTORAL,MED_GPS,-79.75516009200,-5.04033416400,6/1/2016,,2250,-5.040334164-79.755160092
431009,14671,549420,EL PALMO,MED_GPS,-79.77694958600,-5.03711675600,6/1/2016,,2104,-5.037116756-79.776949586
421982,20088,542191,LA PALMA,MED_GPS,-79.70076451000,-5.03458561000,5/25/2016,,2473,-5.03458561-79.70076451
421331,14372,516233,TINGOS,MED_GPS,-79.73319592600,-5.03219698600,6/25/2016,,2517,-5.032196986-79.733195926
422095,20453,573132,CURIRCA,MED_GPS,-79.72483350000,-5.03030666800,5/25/2016,,2578,-5.030306668-79.7248335
422081,20189,570047,LAS VEGAS,MED_GPS,-79.71008026600,-5.01006893900,5/25/2016,,2210,-5.010068939-79.710080266
421958,20085,521347,SAN MARTIN,MED_GPS,-79.71969426500,-4.99659813000,5/28/2016,,2439,-4.99659813-79.719694265
774993,20497,565561,EL YAMBUR,MED_GPS,-79.65762300400,-4.98191834300,5/31/2016,,2385,-4.981918343-79.657623004
433254,20231,625206,CHACHACOMAL ALTO,MED_GPS,-79.86180672400,-4.97171635500,6/3/2016,,3048,-4.971716355-79.861806724
609465,20834,653209,LOS CLAVELES,MED_GPS,-79.72381496100,-4.96896284700,5/28/2016,,2402,-4.968962847-79.723814961
421784,15294,225969,LIVIN DE CURILCAS,MED_GPS,-79.53985220400,-4.94493688000,5/30/2016,,1890,-4.94493688-79.539852204
421760,15231,533255,CASCAJAL,MED_GPS,-79.69770665000,-4.93662449100,5/29/2016,,1730,-4.936624491-79.69770665
422062,20170,235853,CIRUELO,MED_GPS,-79.64454567000,-4.87836786900,5/31/2016,,1240,-4.878367869-79.64454567
0119901,LACITOS DE AMOR 1,120323,EL TREBOL,MED_GPS,-77.23172417600,-11.50053443700,8/17/2016,,144,-11.500534437-77.231724176
0125227,LUCERITO DEL SABER,213101,HUANDO,MED_GPS,-77.18058665600,-11.48593561500,8/22/2016,,239,-11.485935615-77.180586656
0107732,SEMILLITAS DE JESUS,555150,3 DE OCTUBRE,MED_GPS,-77.21978642800,-11.47959921400,8/22/2016,,158,-11.479599214-77.219786428
360506,20338,128465,SANTA CRUZ,MED_GPS,-76.92920103500,-11.05963382900,8/24/2016,,3278,-11.059633829-76.929201035
3070402,NI├æOS DEL FUTURO,112731,CASA VIEJA,MED_GPS,-77.09392989500,-11.14863326900,8/25/2016,,1173,-11.148633269-77.093929895
3079208,NI├æO FELIZ,119917,VISTA ALEGRE,MED_GPS,-77.18871876800,-11.14449328800,8/25/2016,,707,-11.144493288-77.188718768
3881101,ANGELITOS DE ACOTAMA,117357,ACOTAMA,MED_GPS,-77.06436635600,-11.14086718900,8/25/2016,,1393,-11.140867189-77.064366356
3070412,ESTRELLITA DE MI AMOR,112644,A├æAMPAY,MED_GPS,-77.01254071700,-11.13372335300,8/25/2016,,1891,-11.133723353-77.012540717
3070403,LOS ANGELES,114933,HUANANGUI,MED_GPS,-77.03392034500,-11.13226059200,8/25/2016,,1633,-11.132260592-77.033920345
3079218,LOS CRISTALES,129683,CASA BLANCA,MED_GPS,-77.19268912600,-11.13046481600,8/25/2016,,663,-11.130464816-77.192689126
3070417,VIRGEN DEL ROSARIO,114264,HUAMPAN,MED_GPS,-77.00048776800,-11.11391852700,8/24/2016,,1932,-11.113918527-77.000487768
3070415,SOL RADIANTE,121458,YANCAO,MED_GPS,-76.92846125400,-11.11429846500,8/24/2016,,3750,-11.114298465-76.928461254
3072705,CARITAS FELICES,683142,PRIMERO DE MAYO,MED_GPS,-77.61992533800,-11.10080454200,8/25/2016,,27,-11.100804542-77.619925338
3070418,MIS PRIMERAS PALABRAS,542122,PICHUPAMPA,MED_GPS,-76.98985551100,-11.09944551400,8/24/2016,,2265,-11.099445514-76.989855511
3876173,LOS CARI├æOSITOS,128728,HUALMAY,MED_GPS,-77.60979767300,-11.09145070800,8/25/2016,,45,-11.091450708-77.609797673
3070410,MI PEQUE├æO UNIVERSO,130566,CHIPCHO,MED_GPS,-76.94438626300,-11.09433798300,8/24/2016,,3074,-11.094337983-76.944386263
3070409,BLANCA NIEVES,539727,QUIPATAMA,MED_GPS,-76.95728152000,-11.09356663400,8/24/2016,,2506,-11.093566634-76.95728152
3079214,MI PEQUE├æO MUNDO,124471,QUINTAY,MED_GPS,-77.16721222600,-11.08889364600,8/23/2016,,815,-11.088893646-77.167212226
3070408,LA LUZ DE TAN TAN,546194,TAN TAN,MED_GPS,-76.95752372000,-11.08141659900,8/24/2016,,2853,-11.081416599-76.95752372
3070411,PETER PAN,129739,AUQUIMARCA,MED_GPS,-76.91393243600,-11.06451267000,8/24/2016,,3165,-11.06451267-76.913932436
3079215,PASITOS DE JESUS,531228,TRES MONTONES,MED_GPS,-77.14057893200,-11.06048836300,8/23/2016,,939,-11.060488363-77.140578932
3881129,BELLO JARDIN,128465,SANTA CRUZ,MED_GPS,-76.92920103500,-11.05963382900,8/24/2016,,3278,-11.059633829-76.929201035
3084920,GOTITAS DEL SABER,226604,LACSANGA,MED_GPS,-77.00050509200,-11.01805261700,8/29/2016,,2980,-11.018052617-77.000505092
3084921,LOS NI├æOS DE JESUS,126396,LA PERLA,MED_GPS,-77.00786043200,-11.00041447700,8/29/2016,,2636,-11.000414477-77.007860432
3881126,AMOROSOS,524605,GARAPE,MED_GPS,-77.09371105800,-10.96141277000,8/23/2016,,1711,-10.96141277-77.093711058
3084903,RAYITO DE COLORES,119664,QUILCA,MED_GPS,-77.09579489500,-10.95377005500,8/23/2016,,1801,-10.953770055-77.095794895
356118,JEAN PIAGET,125122,CHANCAY,MED_GPS,-77.27024692000,-11.55951740800,8/31/2016,,48,-11.559517408-77.27024692
783332,SAN MARCOS,125122,CHANCAY,MED_GPS,-77.26911989700,-11.55943586400,8/31/2016,,51,-11.559435864-77.269119897
356019,20391 JORGE BRAVO DE RUEDA QUEROL,125122,CHANCAY,MED_GPS,-77.27203082900,-11.55911483400,8/31/2016,,48,-11.559114834-77.272030829
174081,SANTA MARIA,683132,SAN FRANCISCO,MED_GPS,-77.26707688800,-11.55901204600,9/6/2016,,54,-11.559012046-77.267076888
356137,EL MUNDO DE LOS NI├æOS,125122,CHANCAY,MED_GPS,-77.27072782400,-11.55891719300,8/31/2016,,50,-11.558917193-77.270727824
020343,86987,112043,LLECLLI,MED_GPS,-77.66665991600,-9.34058484600,5/30/2016,,3899,-9.340584846-77.666659916
020263,86721 FORTUNATO CANCHA HUARCA,131625,CAPILLAPAMPA,MED_GPS,-77.68018892200,-9.33053494000,6/1/2016,,3827,-9.33053494-77.680188922
020282,86273,125655,RAMPAC GRANDE,MED_GPS,-77.64220564400,-9.30304513100,6/1/2016,,2935,-9.303045131-77.642205644
020215,86300,126717,RAMPAC CHICO,MED_GPS,-77.65081983000,-9.29855550300,6/1/2016,,2998,-9.298555503-77.65081983
020338,86934,573921,MALLHUAPAMPA,MED_GPS,-77.64615887500,-9.29666047700,6/1/2016,,2813,-9.296660477-77.646158875
020201,86299,115412,NIVIN,MED_GPS,-77.69044755400,-9.29584907500,5/31/2016,,3169,-9.295849075-77.690447554
020989,86322,131024,CONGAR,MED_GPS,-77.61867601800,-9.21667514800,6/3/2016,,3158,-9.216675148-77.618676018
020545,86318,529637,PISHAP,MED_GPS,-77.63751391600,-9.21628634700,6/7/2016,,3125,-9.216286347-77.637513916
021012,86819 SE├æOR DE MAYO,521856,SE├æOR DE MAYO DE CATAY,MED_GPS,-77.60869918400,-9.21429344100,6/3/2016,,3323,-9.214293441-77.608699184
759412,583,613180,HORNUYOC,MED_GPS,-77.62873200100,-9.30355223800,6/1/2016,,2707,-9.303552238-77.628732001
360605,497,114681,PACCHO,MED_GPS,-76.93248685700,-10.95732253400,8/26/2016,,3255,-10.957322534-76.932486857
763334,NI├æOS DEL FUTURO,113791,SAN ANDRES DE HUACAR,MED_GPS,-76.95353927500,-10.95650412700,8/26/2016,,3032,-10.956504127-76.953539275
361879,20049,117827,COLCAPAMPA DE MANI,MED_GPS,-77.10336914100,-10.93612658200,8/23/2016,,2051,-10.936126582-77.103369141
359305,527,133404,COCHAMARCA,MED_GPS,-77.12924445000,-10.86391354000,8/23/2016,,3441,-10.86391354-77.12924445
795311,1466,657640,NUEVO TOMAPAMPA,MED_GPS,-80.01058501400,-4.61605944000,6/7/2016,,446,-4.61605944-80.010585014
742761,1256,656541,SANTA ROSA DE SAMANGA,MED_GPS,-79.50364438000,-4.60433160600,6/8/2016,,2383,-4.604331606-79.50364438
417292,132,653708,SOCCHABAMBA CENTRO,MED_GPS,-79.66540903700,-4.60335845200,5/27/2016,,2068,-4.603358452-79.665409037
795306,1465,510460,CALVAS DE FLORES,MED_GPS,-79.54716697700,-4.57697741300,6/2/2016,,1528,-4.576977413-79.547166977
660680,1084,516244,MACUANGUE,MED_GPS,-79.50242454600,-4.57253966500,6/8/2016,,1758,-4.572539665-79.502424546
660840,1097,545062,HUARA DE INDIOS,MED_GPS,-79.57191204700,-4.56994040700,6/1/2016,,1564,-4.569940407-79.571912047
660699,1085,510224,CALVAS DE SAMANGA,MED_GPS,-79.52376372100,-4.55400901100,6/1/2016,,1539,-4.554009011-79.523763721
420708,20622,132818,MINAS DE SALVIA,MED_GPS,-79.80367890900,-4.87391811600,5/31/2016,,2330,-4.873918116-79.803678909
418786,20625,622783,SAN SEBASTIAN,MED_GPS,-79.63422556600,-4.85402825400,6/3/2016,,1235,-4.854028254-79.634225566
418625,15322,537403,CABUYAL,MED_GPS,-79.47694606300,-4.85292928500,6/3/2016,,2126,-4.852929285-79.476946063
779189,20865,682247,LA VICTORIA,MED_GPS,-79.86398686400,-4.83599708200,5/31/2016,,3282,-4.835997082-79.863986864
556551,20815,653278,SAN JUAN DEL FAIQUE,MED_GPS,-79.52681505700,-4.83007077600,6/3/2016,,1985,-4.830070776-79.526815057
417616,14170,227549,VILCALES,MED_GPS,-79.54408914100,-4.82240007200,6/13/2016,,2034,-4.822400072-79.544089141
418215,14886,560495,JIJULL,MED_GPS,-79.57088768300,-4.81654952000,6/12/2016,,1557,-4.81654952-79.570887683
420713,20623,529197,CONDOLUQUIANA,MED_GPS,-79.78987377900,-4.81297669100,5/31/2016,,1800,-4.812976691-79.789873779
418772,20624,551596,SAN PABLO DE PARCOCHACA,MED_GPS,-79.60911043100,-4.80949302700,6/3/2016,,1290,-4.809493027-79.609110431
418159,14242,218465,PARCOCHACA,MED_GPS,-79.60209509900,-4.80918021200,6/3/2016,,1266,-4.809180212-79.602095099
418588,15201,538214,HUALTACO,MED_GPS,-79.54896428900,-4.80177075500,6/13/2016,,1922,-4.801770755-79.548964289
418574,15183,655300,CHINCHINAL,MED_GPS,-79.58717419400,-4.79214002200,6/12/2016,,1725,-4.792140022-79.587174194
417536,14156,516123,TAPAL ALTO,MED_GPS,-79.51082453600,-4.78797839400,6/14/2016,,2304,-4.787978394-79.510824536
418791,20626,613925,TINGOS BARRO NEGRO,MED_GPS,-79.60837784000,-4.78794413100,6/3/2016,,1401,-4.787944131-79.60837784
418395,15075,555839,TAPAL BAJO,MED_GPS,-79.54974161000,-4.78129120800,6/13/2016,,1882,-4.781291208-79.54974161
500154,20805,682681,MONTE OSCURO,MED_GPS,-79.64168305200,-4.77766997700,6/12/2016,,2331,-4.777669977-79.641683052
418164,14243,525286,CARRIZAL ALTO,MED_GPS,-79.52970921200,-4.77275343300,6/13/2016,,2216,-4.772753433-79.529709212
779194,20866,539054,LAGUNA SECA,MED_GPS,-79.83102025800,-4.77312571500,5/30/2016,,1967,-4.773125715-79.831020258
420534,14361,124165,HUANLA,MED_GPS,-79.78199682000,-4.77036595400,5/31/2016,,1066,-4.770365954-79.78199682
418362,15064,540444,ANDURCO ALTO,MED_GPS,-79.62725083100,-4.76293551300,6/12/2016,,1971,-4.762935513-79.627250831
418814,20628,515734,LA CEBADA,MED_GPS,-79.66147151900,-4.75921072400,6/12/2016,,2057,-4.759210724-79.661471519
418809,20627,550004,GRANADILLO,MED_GPS,-79.57978099200,-4.75430978700,6/12/2016,,2327,-4.754309787-79.579780992
420553,14916,614370,NARANJO DE MATALACAS,MED_GPS,-79.76622317400,-4.75453325000,5/31/2016,,978,-4.75453325-79.766223174
418687,15444,217958,TALAL,MED_GPS,-79.56072877000,-4.73927191300,6/9/2016,,2040,-4.739271913-79.56072877
360530,20981,546194,TAN TAN,MED_GPS,-76.95745442200,-11.08241767000,8/24/2016,,2819,-11.08241767-76.957454422
360484,20369,129739,AUQUIMARCA,MED_GPS,-76.91393243600,-11.06451267000,8/24/2016,,3165,-11.06451267-76.913932436
360993,20867,531228,TRES MONTONES,MED_GPS,-77.14046495600,-11.06041686500,8/23/2016,,939,-11.060416865-77.140464956
361921,20102,512149,CHOQUE,MED_GPS,-77.07789337300,-11.00211004600,8/23/2016,,1199,-11.002110046-77.077893373
287059,10211,218316,EL NARANJO,MED_GPS,-79.50169651900,-6.25050797800,7/21/2016,,1301,-6.250507978-79.501696519
287097,10218,621054,SUCCHA BAJA/EL BENDITO,MED_GPS,-79.49658338400,-6.24003946900,7/21/2016,,1356,-6.240039469-79.496583384
287262,10983,129052,SHITA ALTA,MED_GPS,-79.50094285800,-6.21484759000,7/20/2016,,1615,-6.21484759-79.500942858
286941,135,511374,HUAMACHUCO,MED_GPS,-79.54107431800,-6.17664760000,7/22/2016,,1028,-6.1766476-79.541074318
287182,10858,234487,PEDREGAL,MED_GPS,-79.54867404700,-6.15920737100,7/22/2016,,791,-6.159207371-79.548674047
788872,509,616025,AYAHUIL,MED_GPS,-79.47948869800,-6.15535037800,7/24/2016,,1962,-6.155350378-79.479488698
286922,128,611485,MUROJAGA,MED_GPS,-79.52260760600,-6.14820697400,7/23/2016,,1255,-6.148206974-79.522607606
287403,10217,124417,TALLAPAMPA,MED_GPS,-79.51449722900,-6.13849823000,7/23/2016,,1435,-6.13849823-79.514497229
596986,337,113924,ARAUMAJADA,MED_GPS,-79.53629637200,-6.13230932000,7/23/2016,,1318,-6.13230932-79.536296372
674031,176,122273,CORRAL DE PIEDRA,MED_GPS,-79.47243832400,-6.10456762500,7/19/2016,,1858,-6.104567625-79.472438324
670047,414,653803,CRUZ DE MAYO,MED_GPS,-79.46510406900,-6.10395533800,7/19/2016,,1821,-6.103955338-79.465104069
487510,PUNKU RUMI,122273,CORRAL DE PIEDRA,MED_GPS,-79.46992669900,-6.10362543200,7/19/2016,,1833,-6.103625432-79.469926699
664777,421,129290,LAGUNA HUANAMA,MED_GPS,-79.47978836600,-6.03511704400,7/18/2016,,1491,-6.035117044-79.479788366
285606,11260,125149,EL SAUCE,MED_GPS,-79.60098925700,-6.01054852600,7/27/2016,,666,-6.010548526-79.600989257
285692,168,561256,BARRIO PACORA,MED_GPS,-79.75142503400,-5.99267623000,7/14/2016,,172,-5.99267623-79.751425034
285687,167,113579,LOS POSITOS,MED_GPS,-79.72955510700,-5.99205438300,7/14/2016,,193,-5.992054383-79.729555107
635394,352 ELIAS AGUIRRE,618130,CRUCE JAEN ANTIGUO,MED_GPS,-79.69728093100,-5.99016258900,7/15/2016,,231,-5.990162589-79.697280931
726879,450,530028,PALMO-BOLICHES,MED_GPS,-79.68929954500,-5.98272477900,7/15/2016,,246,-5.982724779-79.689299545
635426,355 ABRAHAM VALDELOMAR,524087,EL IMPERIAL,MED_GPS,-79.73495371400,-5.97471384900,7/14/2016,,180,-5.974713849-79.734953714
635351,348 KAROL WOJTYLA,544644,NUEVA ESPERANZA,MED_GPS,-79.66686842800,-5.95232750900,7/15/2016,,301,-5.952327509-79.666868428
285890,10196 NUESTRA SE├æORA DEL CARMEN,132208,LA PILCA,MED_GPS,-79.64360900300,-5.94248085900,7/15/2016,,365,-5.942480859-79.643609003
472108,11184 JOSE GABRIEL CONDORCANQUI,519126,TUPAC AMARU,MED_GPS,-79.59946442100,-5.94054753900,7/15/2016,,489,-5.940547539-79.599464421
635412,354 MICAELA BASTIDAS,125540,CERRO DE CASCAJAL,MED_GPS,-79.77517221400,-5.93516919500,7/14/2016,,138,-5.935169195-79.775172214
788914,506,613081,PLAYA DE CASCAJAL,MED_GPS,-79.77350473400,-5.92986554100,7/14/2016,,139,-5.929865541-79.773504734
635365,349,682337,PAMPAS DE CASCAJAL,MED_GPS,-79.77239412300,-5.90101085000,7/14/2016,,134,-5.90101085-79.772394123
635515,364 VIRGEN PEREGRINA,538334,SINCAPE,MED_GPS,-79.74359102100,-5.90073673700,7/13/2016,,162,-5.900736737-79.743591021
716682,137,537110,EL PUEBLITO,MED_GPS,-79.72696620000,-5.89373133800,7/13/2016,,172,-5.893731338-79.7269662
635501,363 MARIO VARGAS LLOSA,535617,TRES BATANES,MED_GPS,-79.71152472800,-5.87627147000,7/13/2016,,187,-5.87627147-79.711524728
020611,86279,112663,HUACRAN,MED_GPS,-77.61638987700,-9.34312463900,6/2/2016,,3089,-9.343124639-77.616389877
020932,86320,123677,HUAPRA,MED_GPS,-77.54627500700,-9.34329548700,6/8/2016,,3074,-9.343295487-77.546275007
728227,644,513065,UCUSHPAMPA,MED_GPS,-77.54882196400,-9.33696800900,6/8/2016,,3068,-9.336968009-77.548821964
020786,86304,110489,RECUAY HUANCA,MED_GPS,-77.55477437200,-9.33691170700,6/8/2016,,3087,-9.336911707-77.554774372
020814,86988-1,618734,COYROCSHO,MED_GPS,-77.54338463400,-9.33591717800,6/8/2016,,3146,-9.335917178-77.543384634
020809,86988 CAYETANA FERRER CHAVEZ,619052,HUASHCAR,MED_GPS,-77.61971054900,-9.33412027200,6/3/2016,,3142,-9.334120272-77.619710549
020828,86988-3,521797,CULLHUASH,MED_GPS,-77.53783221300,-9.33178473900,6/8/2016,,3281,-9.331784739-77.537832213
020767,86717 TUPAC AMARU,623823,ACO PURHUAY,MED_GPS,-77.62021740000,-9.32914407600,6/3/2016,,3008,-9.329144076-77.6202174
020705,235,132533,VICOS,MED_GPS,-77.55576044700,-9.32740380300,6/8/2016,,2986,-9.327403803-77.555760447
616102,412,514042,SHUMAY,MED_GPS,-77.60079797900,-9.32593517100,6/3/2016,,2768,-9.325935171-77.600797979
700657,446,131126,PURHUAY,MED_GPS,-77.62260870300,-9.32264138900,6/3/2016,,2956,-9.322641389-77.622608703
020692,072,110016,MARCARA,MED_GPS,-77.60275734100,-9.32234889800,6/3/2016,,2747,-9.322348898-77.602757341
020710,400,535810,TUYU,MED_GPS,-77.58615019000,-9.32198022000,6/9/2016,,2822,-9.32198022-77.58615019
020734,86305,114039,ULLMAY,MED_GPS,-77.55733700200,-9.30814958700,6/8/2016,,3128,-9.308149587-77.557337002
020753,86308 ROSA MARIA DEXTRE VIA,226486,COPA GRANDE,MED_GPS,-77.56257751100,-9.29035468900,6/9/2016,,3262,-9.290354689-77.562577511
021149,86723,124675,SANTA ROSA,MED_GPS,-77.60777004700,-9.38912063200,6/1/2016,,3085,-9.389120632-77.607770047
021130,86315,525349,TRIGOPAMPA,MED_GPS,-77.60299698300,-9.38428180100,6/1/2016,,3024,-9.384281801-77.602996983
021111,86282 FRANCISCO ALEGRE S.,544382,CARIAN,MED_GPS,-77.59018955400,-9.38051292500,5/30/2016,,2806,-9.380512925-77.590189554
020630,86310,528830,PACCHA,MED_GPS,-77.63718409400,-9.37373221400,6/2/2016,,3666,-9.373732214-77.637184094
020885,86316,538793,AHUAC,MED_GPS,-77.56966539100,-9.37400653200,6/6/2016,,3077,-9.374006532-77.569665391
020908,86284 APOSTOL SANTIAGO,130688,PARIAHUANCA,MED_GPS,-77.58403680500,-9.36402721700,6/1/2016,,2781,-9.364027217-77.584036805
020946,86321,523845,QUINRANCA,MED_GPS,-77.53582485400,-9.36276614500,6/6/2016,,3316,-9.362766145-77.535824854
020625,86309,227209,PAMPACANCHA,MED_GPS,-77.62344121500,-9.36032029100,6/2/2016,,3367,-9.360320291-77.623441215
020606,86278 MARIO TORRES MEZARINA,122489,ANTA,MED_GPS,-77.59995942500,-9.35771563400,6/2/2016,,2801,-9.357715634-77.599959425
020772,86277,132533,VICOS,MED_GPS,-77.55286566800,-9.32879540900,6/8/2016,,3018,-9.328795409-77.552865668
020729,86276 ANTONIO LOLI LAREDO,110016,MARCARA,MED_GPS,-77.60275972600,-9.32328411000,6/3/2016,,2740,-9.32328411-77.602759726
020748,86307,535810,TUYU,MED_GPS,-77.58740444800,-9.32219068100,6/9/2016,,2817,-9.322190681-77.587404448
021168,SANTIAGO ANTUNEZ DE MAYOLO,111379,YUNGAR,MED_GPS,-77.59225401400,-9.37731890900,5/30/2016,,2812,-9.377318909-77.592254014
020847,PEDRO PABLO ATUSPARIA,132533,VICOS,MED_GPS,-77.55893356900,-9.32401315000,6/8/2016,,2956,-9.32401315-77.558933569
020833,JOSE MARIA ARGUEDAS,110016,MARCARA,MED_GPS,-77.60367942800,-9.31984459600,6/3/2016,,2776,-9.319844596-77.603679428
0407860,CANTA GALLO,552806,CANTA GALLO,MED_GPS,-77.71683100400,-10.81672294600,8/27/2016,,25,-10.816722946-77.716831004
0407861,NUEVO PARAISO,683112,NUEVO PARAISO,MED_GPS,-77.73317005300,-10.79959291500,8/26/2016,,49,-10.799592915-77.733170053
0395549,MARIA HIDALGO PICHILINGUE,112668,SUPE PUERTO,MED_GPS,-77.74029771500,-10.79557000000,8/26/2016,,17,-10.79557-77.740297715
0407870,CRECIENDO JUNTOS,116242,CARAL,MED_GPS,-77.50184339200,-10.89063665900,8/26/2016,,375,-10.890636659-77.501843392
3876820,ALPACOTO,131598,ALPACOTO,MED_GPS,-77.51801153100,-10.87812692300,8/26/2016,,341,-10.878126923-77.518011531
0407864,MIS HUELLITAS,132706,CALETA VIDAL,MED_GPS,-77.69971601600,-10.85554172200,8/27/2016,,18,-10.855541722-77.699716016
0407840,VENTUROSA BAJA,651721,VENTUROSA BAJA,MED_GPS,-77.63121895300,-10.85555624800,8/26/2016,,130,-10.855556248-77.631218953
3876199,TERNURA DE AMOR,130626,EL MOLINO,MED_GPS,-77.66549304900,-10.83275054200,8/26/2016,,67,-10.832750542-77.665493049
3890215,SAUSAL,654361,SAUSAL,MED_GPS,-77.68755102300,-10.82999488100,8/26/2016,,36,-10.829994881-77.687551023
3876825,HUARALICA,111172,HUARALICA,MED_GPS,-77.64995720000,-10.82926418500,8/26/2016,,100,-10.829264185-77.6499572
3887558,CORAZONCITOS,552806,CANTA GALLO,MED_GPS,-77.71683100400,-10.81672294600,8/27/2016,,25,-10.816722946-77.716831004
0402219,MIGUEL GRAU A,683110,JAVIER PEREZ DE CUELLAR,MED_GPS,-77.74098748000,-10.80582610400,8/26/2016,,37,-10.805826104-77.74098748
0395548,NUEVO PARAISO B,683112,NUEVO PARAISO,MED_GPS,-77.73317005300,-10.79959291500,8/26/2016,,49,-10.799592915-77.733170053
3876822,SUE├æOS Y SONRISAS,619219,LUIS NEGREIROS,MED_GPS,-77.55430129400,-10.80035142900,8/24/2016,,294,-10.800351429-77.554301294
0398638,TERNURA DE NI├æO,112668,SUPE PUERTO,MED_GPS,-77.74029771500,-10.79557000000,8/26/2016,,17,-10.79557-77.740297715
0407859,ANTIVAL B,126655,PAMPAS DE ANTIVAL,MED_GPS,-77.71093752600,-10.79545572000,8/26/2016,,56,-10.79545572-77.710937526
0395537,ANTIVAL,126655,PAMPAS DE ANTIVAL,MED_GPS,-77.70902735100,-10.79521497500,8/26/2016,,56,-10.795214975-77.709027351
0395526,JOSE OLAYA,563063,JOSE OLAYA,MED_GPS,-77.74114434500,-10.79128920300,8/26/2016,,25,-10.791289203-77.741144345
0407869,MANITOS TRAVIESAS,653379,LA MINKA,MED_GPS,-77.71972358900,-10.78579465700,8/26/2016,,90,-10.785794657-77.719723589
3876819,LA MINKA,653379,LA MINKA,MED_GPS,-77.71916425900,-10.78579415200,8/26/2016,,85,-10.785794152-77.719164259
3876826,LOS OLIVOS,682965,LOS OLIVOS,MED_GPS,-77.71235167900,-10.78502004700,8/26/2016,,99,-10.785020047-77.712351679
0407846,MI PEQUE├æO MUNDO,682268,ATARRAYA,MED_GPS,-77.74730425600,-10.77853669500,8/27/2016,,34,-10.778536695-77.747304256
0407862,SANTA ELENA SUR,512277,SANTA ELENA SUR,MED_GPS,-77.71818582700,-10.77003374200,8/27/2016,,112,-10.770033742-77.718185827
0402229,SAN MARTIN,625268,SAN MARTIN,MED_GPS,-77.76668868100,-10.75591482600,8/28/2016,,43,-10.755914826-77.766688681
3876818,NI├æOS FELICES,683131,SAN VALENTIN,MED_GPS,-77.74955872200,-10.75067267900,9/5/2016,,85,-10.750672679-77.749558722
0402249,MI BABY,683113,MANUEL BUSTAMANTE REYES,MED_GPS,-77.74806712800,-10.74920063200,8/28/2016,,86,-10.749200632-77.748067128
0402239,CARITAS FELICES,655038,AGROPEMSA,MED_GPS,-77.71561046000,-10.72953777000,8/25/2016,,193,-10.72953777-77.71561046
3890216,EL MIRADOR,683114,EL MIRADOR,MED_GPS,-77.71783859600,-10.72594510600,8/25/2016,,203,-10.725945106-77.717838596
034528,88223,617429,PAMPADURA,MED_GPS,-78.51877689000,-8.98182069700,8/24/2016,,107,-8.981820697-78.51877689
036179,88246,117393,CHINGA,MED_GPS,-78.02490052700,-8.97622530000,8/26/2016,,2607,-8.9762253-78.024900527
036155,88221,114487,MUCHARAN,MED_GPS,-78.03445487400,-8.96920639100,8/26/2016,,2621,-8.969206391-78.034454874
037555,88332,119992,TAMBO REAL ANTIGUO,MED_GPS,-78.57893078000,-8.96841762700,8/22/2016,,56,-8.968417627-78.57893078
036117,88093,523787,CHACANA,MED_GPS,-78.14713500700,-8.95235509000,8/20/2016,,1779,-8.95235509-78.147135007
036160,88235,118924,TAULLISPAMPA,MED_GPS,-78.06031840300,-8.94997805900,8/26/2016,,3294,-8.949978059-78.060318403
036042,88075,126264,ANGUY,MED_GPS,-78.10126113200,-8.94619597100,8/20/2016,,2801,-8.946195971-78.101261132
3889101,TRAVESURAS,130442,SAN FRANCISCO,MED_GPS,-78.58051941300,-9.06697144200,8/23/2016,,17,-9.066971442-78.580519413
3889173,MI MUNDO DE JUGUETE,567904,SANTA CRUZ,MED_GPS,-78.58230955100,-9.05842039100,8/23/2016,,47,-9.058420391-78.582309551
2626423,HUELLITAS DE AMOR,683121,SAN JOSE,MED_GPS,-78.61512640700,-9.02461292000,8/22/2016,,26,-9.02461292-78.615126407
3889827,LUZ DE ESPERANZA,120976,SANTA CLEMENCIA,MED_GPS,-78.54004642200,-8.99794980200,8/24/2016,,81,-8.997949802-78.540046422
3889831,GOTITAS DE AMOR,124145,CAMBIO PUENTE,MED_GPS,-78.55418715300,-8.99762828000,8/24/2016,,87,-8.99762828-78.554187153
2659216,ANTONIO DE PUNGURI,683122,PUNGURI,MED_GPS,-78.60910377400,-8.98558486400,8/22/2016,,26,-8.985584864-78.609103774
2652723,RAYITOS DE LUZ,512080,LACRAMARCA BAJA,MED_GPS,-78.53798555400,-8.97766129300,8/24/2016,,122,-8.977661293-78.537985554
2623105,MIS PEQUE├æOS TALENTOS,667076,CARRIZALES,MED_GPS,-78.52957612800,-8.97415836600,8/24/2016,,132,-8.974158366-78.529576128
2690024,GOTITAS DE AMOR,114487,MUCHARAN,MED_GPS,-78.03445487400,-8.96920639100,8/26/2016,,2621,-8.969206391-78.034454874
3877688,LOS PINITOS,611147,SANTA ELISA,MED_GPS,-78.50385107200,-8.97228368900,8/24/2016,,139,-8.972283689-78.503851072
2623108,CHISPITAS DE AMOR,622822,TUPAC AMARU,MED_GPS,-78.53167928200,-8.95951340300,8/24/2016,,166,-8.959513403-78.531679282
3889194,MANITOS TALENTOSAS,127947,ALTO PERU,MED_GPS,-78.58018564700,-8.94952506200,8/22/2016,,67,-8.949525062-78.580185647
3877665,DULCE DESPERTAR,624192,LAMPANIN,MED_GPS,-78.14527300300,-8.93467673900,5/20/2016,,2091,-8.934676739-78.145273003
2690038,ANGELITOS DE JESUS,235393,RAYAN,MED_GPS,-78.09880932000,-8.92583668400,8/20/2016,,3262,-8.925836684-78.09880932
3877684,ENGREIDOS DE JESUS,112564,RACUAYBAMBA,MED_GPS,-78.08010648500,-8.91780249700,8/26/2016,,2866,-8.917802497-78.080106485
2628727,BURBUJITAS,110138,HUASQUIL,MED_GPS,-78.14046392500,-8.85585204900,8/29/2016,,2856,-8.855852049-78.140463925
3882671,MARIPOSITA 1,115068,INDIANA,MED_GPS,-73.05200768800,-3.50490934100,5/1/2016,,100,-3.504909341-73.052007688
370534,DAMASO LABERGE,115068,INDIANA,MED_GPS,-73.04647005400,-3.50148902500,5/1/2016,,96,-3.501489025-73.046470054
370529,INDIANA,115068,INDIANA,MED_GPS,-73.04257784300,-3.49999079800,5/1/2016,,92,-3.499990798-73.042577843
368036,INKA MANKO KALI,683120,INKA MANKO KALI,MED_GPS,-73.29896494000,-3.79420320100,6/6/2016,,106,-3.794203201-73.29896494
369979,60073,530237,SINCHICUY,MED_GPS,-73.13658528000,-3.58723952500,5/30/2016,,95,-3.587239525-73.13658528
370096,60228,226792,SAN RAFAEL,MED_GPS,-73.11808818000,-3.56365229700,5/31/2016,,90,-3.563652297-73.11808818
370001,60076 MIGUEL RIOS LOPEZ,611034,TIMICURO,MED_GPS,-73.02382614000,-3.55854624700,5/31/2016,,84,-3.558546247-73.02382614
370402,601346,538602,TIMICURO I ZONA,MED_GPS,-73.03779797000,-3.55193600800,5/31/2016,,88,-3.551936008-73.03779797
370505,CEBA - SAN JOSE,115068,INDIANA,MED_GPS,-73.04203092600,-3.49687388200,5/1/2016,,93,-3.496873882-73.042030926
370039,60221,528864,SAN PEDRO DE MANATI,MED_GPS,-72.87428915800,-3.47754438200,5/28/2016,,72,-3.477544382-72.874289158
744581,6010242,311014,SANTA ROSA,MED_GPS,-72.96303336400,-3.47649598700,5/30/2016,,88,-3.476495987-72.963033364
3876823,MOMENTOS MAGICOS,538032,PAMPA BONITA,MED_GPS,-77.62556185600,-10.72620909600,8/24/2016,,357,-10.726209096-77.625561856
3876827,MIS PRIMEROS TRAZOS,123123,VINTO ALTO,MED_GPS,-77.69034818100,-10.69341834900,8/25/2016,,230,-10.693418349-77.690348181
0407845,VISTA ALEGRE,654358,VISTA ALEGRE,MED_GPS,-77.68543730300,-10.68980063200,8/25/2016,,248,-10.689800632-77.685437303
0407826,PURMACANA ALTA,654090,PURMACANA ALTA,MED_GPS,-77.60328112400,-10.68349070500,8/25/2016,,381,-10.683490705-77.603281124
0407848,LAS HUERTAS,224555,LAS HUERTAS,MED_GPS,-77.63872693300,-10.67356076100,8/25/2016,,303,-10.673560761-77.638726933
350239,21586 ANDRES AVELINO CACERES,116242,CARAL,MED_GPS,-77.50194623100,-10.88992378200,8/26/2016,,374,-10.889923782-77.501946231
350220,21585,132017,LLAMAHUACA,MED_GPS,-77.55363231600,-10.86492427800,8/26/2016,,257,-10.864924278-77.553632316
350036,653,245822,VIRGEN DE LAS MERCEDES,MED_GPS,-77.64018929900,-10.76225666700,8/24/2016,,156,-10.762256667-77.640189299
763414,LOS QUERUBINES,653377,PAMPA EL ANGEL,MED_GPS,-77.72505789700,-10.73809399100,8/25/2016,,147,-10.738093991-77.725057897
350041,654,245766,VIRGEN DEL ROSARIO,MED_GPS,-77.61472894100,-10.73835348600,8/24/2016,,271,-10.738353486-77.614728941
732187,LAS SEMILLITAS,655038,AGROPEMSA,MED_GPS,-77.71514108300,-10.72925456600,8/25/2016,,206,-10.729254566-77.715141083
637029,CHIU CHIU,121656,CHIU CHIU,MED_GPS,-77.72573219100,-10.72638016800,8/25/2016,,151,-10.726380168-77.725732191
348784,660,114116,ARAYA GRANDE,MED_GPS,-77.62571967700,-10.67461178700,8/25/2016,,325,-10.674611787-77.625719677
350376,JOSE OLAYA BALANDRA,112668,SUPE PUERTO,MED_GPS,-77.74409685700,-10.80579126700,8/26/2016,,27,-10.805791267-77.744096857
350324,PEDRO RUIZ GALLO,126594,LETICIA,MED_GPS,-77.72967147900,-10.79761004200,8/26/2016,,46,-10.797610042-77.729671479
350282,CEBA - FRANCISCO VIDAL LAOS,116073,SUPE,MED_GPS,-77.71311729300,-10.79396847000,8/27/2016,,61,-10.79396847-77.713117293
3889129,DIVIERTETE JUGANDO,652116,7 DE JULIO,MED_GPS,-78.54455199000,-9.12325506700,8/23/2016,,9,-9.123255067-78.54455199
3889113,GOTITAS DE MIEL,613153,LA VICTORIA,MED_GPS,-78.57445358500,-9.07369295400,8/23/2016,,17,-9.073692954-78.574453585
3889196,DISNEYLANDIA,683121,SAN JOSE,MED_GPS,-78.61512640700,-9.02461292000,8/22/2016,,26,-9.02461292-78.615126407
3889112,ESTRELLITAS DEL SABER,613153,LA VICTORIA,MED_GPS,-78.57445358500,-9.07369295400,8/23/2016,,17,-9.073692954-78.574453585
3889116,NI├æOS CREATIVOS,613153,LA VICTORIA,MED_GPS,-78.57445358500,-9.07369295400,8/23/2016,,17,-9.073692954-78.574453585
3889115,ANGELITOS DE MARIA,613153,LA VICTORIA,MED_GPS,-78.57445358500,-9.07369295400,8/23/2016,,17,-9.073692954-78.574453585
2661816,DULCE NIDO,613153,LA VICTORIA,MED_GPS,-78.57445358500,-9.07369295400,8/23/2016,,17,-9.073692954-78.574453585
037918,88218,612563,TANGAY MEDIO,MED_GPS,-78.52102660200,-9.05053765200,8/23/2016,,107,-9.050537652-78.521026602
034509,88177 ABAD LOPEZ DE LA CRUZ,613543,23 DE OCTUBRE,MED_GPS,-78.53926654500,-9.02653797600,8/24/2016,,63,-9.026537976-78.539266545
034458,88046 JOSE CARLOS MARIATEGUI,124145,CAMBIO PUENTE,MED_GPS,-78.55548929000,-8.99715614600,8/24/2016,,91,-8.997156146-78.55548929
034482,88071,120976,SANTA CLEMENCIA,MED_GPS,-78.53841965600,-8.99655625500,8/24/2016,,82,-8.996556255-78.538419656
034364,88027,512080,LACRAMARCA BAJA,MED_GPS,-78.53387385100,-8.97599632100,8/24/2016,,114,-8.975996321-78.533873851
034463,88066 RENE SALAZAR MAGUI├æA,551505,CHACHAPOYAS,MED_GPS,-78.49751260100,-8.97344359200,8/24/2016,,132,-8.973443592-78.497512601
037503,88319,523017,TAMBO REAL NUEVO,MED_GPS,-78.58311353100,-8.96776449800,8/22/2016,,53,-8.967764498-78.583113531
034514,88183,620971,14 INCAS,MED_GPS,-78.51763142300,-8.94639888100,8/24/2016,,164,-8.946398881-78.517631423
036018,88064,128850,CARHUAMARCA,MED_GPS,-78.06631398200,-8.93169613400,8/26/2016,,3190,-8.931696134-78.066313982
531810,88074,235393,RAYAN,MED_GPS,-78.09869495300,-8.92513424800,8/20/2016,,3282,-8.925134248-78.098694953
036589,88241,536044,SANTA ROSA DE PAQUIRCA,MED_GPS,-78.15298334300,-8.87080705500,8/29/2016,,2471,-8.870807055-78.152983343
037452,88257 COMANDANTE ROLANDO HARVEY,571094,PAMPA ALTA DE VINZOS,MED_GPS,-78.55281417000,-8.85266663300,8/22/2016,,177,-8.852666633-78.55281417
037956,88302 ENRIQUE MORALES PUMARICA,652410,LOS ALAMOS,MED_GPS,-78.53147424100,-9.11599017300,8/23/2016,,23,-9.115990173-78.531474241
531160,88398,615138,TANGAY BAJO,MED_GPS,-78.52229484500,-9.06751134100,8/23/2016,,98,-9.067511341-78.522294845
531612,MI PEQUE├æO MUNDO AMERICANO,124145,CAMBIO PUENTE,MED_GPS,-78.55814306100,-9.00170411300,8/24/2016,,94,-9.001704113-78.558143061
035306,NUESTRA SE├æORA DE LAS MERCEDES,124145,CAMBIO PUENTE,MED_GPS,-78.55364118000,-8.99609013700,8/24/2016,,85,-8.996090137-78.55364118
370044,60223,515738,YANAMONO I ZONA,MED_GPS,-72.87633200500,-3.45189490700,5/29/2016,,86,-3.451894907-72.876332005
370379,6010288,542745,PALMERA II ZONA,MED_GPS,-72.85417802300,-3.44045056500,5/29/2016,,90,-3.440450565-72.854178023
370218,60876,520654,SANTA VICTORIA,MED_GPS,-73.08600439300,-3.56460492200,5/31/2016,,87,-3.564604922-73.086004393
744741,601663,682329,SANTA VICTORIA II ZONA,MED_GPS,-73.06106060200,-3.56052348800,5/31/2016,,88,-3.560523488-73.061060602
370237,64470,522205,CATALAN,MED_GPS,-72.75898565600,-3.53730153800,5/28/2016,,88,-3.537301538-72.758985656
370421,601416,538910,CORAZON DE JESUS,MED_GPS,-73.13877993900,-3.53543856300,5/31/2016,,106,-3.535438563-73.138779939
370077,60226 CECILIA RUIZ DAVILA,230012,TIMICURILLO,MED_GPS,-73.09236054900,-3.53032112300,5/30/2016,,104,-3.530321123-73.092360549
372019,6010267,513916,TRIUNFO CENTRO VARADERILLO,MED_GPS,-73.10475788400,-3.52956445300,5/30/2016,,91,-3.529564453-73.104757884
371232,601343,542685,YAHUAS TIPISHCA,MED_GPS,-72.67288673200,-3.52184079400,5/28/2016,,86,-3.521840794-72.672886732
370256,601052,524584,TIMICURILLO II ZONA,MED_GPS,-73.07450278500,-3.51713004200,5/30/2016,,92,-3.517130042-73.074502785
370497,601517,115068,INDIANA,MED_GPS,-73.05163989600,-3.50479464600,5/1/2016,,95,-3.504794646-73.051639896
369960,60071,115068,INDIANA,MED_GPS,-73.04203092600,-3.49687388200,5/1/2016,,93,-3.496873882-73.042030926
744717,601577,557576,SAN JOAQUIN,MED_GPS,-73.03360987500,-3.49673323300,5/1/2016,,98,-3.496733233-73.033609875
744562,6010285,574396,SUNI CA├æO,MED_GPS,-72.93132159200,-3.49599163500,5/27/2016,,86,-3.495991635-72.931321592
371152,6010129,616079,PUERTO LIBRE,MED_GPS,-72.69054160000,-3.49376352300,5/28/2016,,78,-3.493763523-72.6905416
372104,6010244,614710,NUEVO UCHIZA,MED_GPS,-72.97757823300,-3.49235789100,5/27/2016,,86,-3.492357891-72.977578233
370261,601078,522658,SAN LUIS,MED_GPS,-73.01676092400,-3.49035135600,5/30/2016,,97,-3.490351356-73.016760924
280939,10075,683119,PAMPA LA VICTORIA,MED_GPS,-79.54240806600,-6.73939900800,7/11/2016,,120,-6.739399008-79.542408066
283117,11265,617283,EL PROGRESO,MED_GPS,-79.58275896800,-6.72568146100,7/8/2016,,122,-6.725681461-79.582758968
283122,11120 JOSE A QUI├æONES GONZALES,625402,LAS CANTERAS,MED_GPS,-79.59936472800,-6.71836070100,7/11/2016,,113,-6.718360701-79.599364728
278192,11507,112062,TINAJONES,MED_GPS,-79.42231208000,-6.64958508700,7/9/2016,,193,-6.649585087-79.42231208
278106,11222 SAGRADO CORAZON DE JESUS,310997,PIEDRA PARADA,MED_GPS,-79.41308562700,-6.63912934700,7/8/2016,,205,-6.639129347-79.413085627
278149,11249,541179,LAS COLMENAS,MED_GPS,-79.40835656800,-6.61718748100,7/8/2016,,222,-6.617187481-79.408356568
278093,10798,124982,OVERAZAL,MED_GPS,-79.38003046400,-6.59755046900,7/8/2016,,253,-6.597550469-79.380030464
674984,11579 MILAGRO DE DIOS,117373,EL MIRADOR,MED_GPS,-79.40750489000,-6.58061611700,7/8/2016,,264,-6.580616117-79.40750489
281321,ANDRES BARON BERRIOS,611038,CABALLO BLANCO,MED_GPS,-79.54496179100,-6.77991654300,7/11/2016,,124,-6.779916543-79.544961791
572589,ALFA COLLEGE,651697,MAGISTERIAL,MED_GPS,-79.85919483800,-6.77285929400,7/14/2016,,25,-6.772859294-79.859194838
281585,TUPAC AMARU,571731,LAS CASUARINAS,MED_GPS,-79.70579780800,-6.74384774100,7/11/2016,,58,-6.743847741-79.705797808
507725,MARIA CESPEDES SIGNOL,625402,LAS CANTERAS,MED_GPS,-79.59847516500,-6.71817005300,7/11/2016,,115,-6.718170053-79.598475165
280190,073 - PIMENTEL,539254,DALORSO,MED_GPS,-79.93108649500,-6.83492419900,7/12/2016,,6,-6.834924199-79.931086495
670014,404,654552,EL HIGO,MED_GPS,-79.91892092000,-6.79466075900,7/12/2016,,18,-6.794660759-79.91892092
664391,399,617959,LA INMACULADA,MED_GPS,-79.60227842000,-6.78204558000,7/11/2016,,95,-6.78204558-79.60227842
726780,441,626173,SAN FRANCISCO DE ASIS,MED_GPS,-79.79561793100,-6.76926912800,7/14/2016,,36,-6.769269128-79.795617931
705933,LAS AMERICAS COLLEGE,564834,ATUSPARIAS,MED_GPS,-79.82832439600,-6.75925029100,7/13/2016,,31,-6.759250291-79.828324396
664466,411,572279,VILLA EL SOL,MED_GPS,-79.84197852700,-6.74715914100,7/13/2016,,29,-6.747159141-79.841978527
726723,434,655366,PAMPA EL TORO,MED_GPS,-79.69720685900,-6.74190307900,7/11/2016,,61,-6.741903079-79.697206859
664452,409,683119,PAMPA LA VICTORIA,MED_GPS,-79.54230934800,-6.74034644000,7/11/2016,,117,-6.74034644-79.542309348
758295,470,626242,PUENTE TULIPE,MED_GPS,-79.56189556300,-6.73153850200,7/11/2016,,115,-6.731538502-79.561895563
726803,443,625402,LAS CANTERAS,MED_GPS,-79.59757458900,-6.72276967000,7/11/2016,,117,-6.72276967-79.597574589
758257,466,211625,ZAPOTAL,MED_GPS,-79.41566822500,-6.64655896400,7/9/2016,,190,-6.646558964-79.415668225
3864423,DIVINO NI├æO,622392,LOS PINOS,MED_GPS,-79.90189598400,-6.82343997000,7/12/2016,,10,-6.82343997-79.901895984
2672514,MANITOS DE AMOR,613530,SAN LORENZO,MED_GPS,-79.92532529600,-6.82300433000,7/12/2016,,7,-6.82300433-79.925325296
2635504,LOS GIRASOLES,530276,SAN SEBASTIAN,MED_GPS,-79.57083218300,-6.81325370900,7/11/2016,,123,-6.813253709-79.570832183
080209,EL ROSARIO,568556,ALDEA CAMPESINA,MED_GPS,-77.26761132000,-11.55430555500,9/6/2016,,60,-11.554305555-77.26761132
356038,PAMPA EL INCA,566964,PAMPA DEL INCA,MED_GPS,-77.24010497400,-11.54738897000,9/2/2016,,124,-11.54738897-77.240104974
646566,GENERAL DON JOSE DE SAN MARTIN,523192,28 DE JULIO,MED_GPS,-77.25119466600,-11.54147412600,9/2/2016,,99,-11.541474126-77.251194666
355901,21556 LOS VENCEDORES DE TORRE BLANC,119376,TORRE BLANCA,MED_GPS,-77.25861738500,-11.53832574700,9/2/2016,,86,-11.538325747-77.258617385
355883,21568 SANTA ROSA DE LIMA,573749,LOS LAURELES,MED_GPS,-77.27965656700,-11.53673345200,9/1/2016,,58,-11.536733452-77.279656567
3084918,PASITOS DE DULZURA,534513,ULANCAY,MED_GPS,-76.95215472400,-10.93085992500,8/25/2016,,2521,-10.930859925-76.952154724
3084901,LUZ DEL SABER,246574,SAN PABLO DE YARANGA,MED_GPS,-76.95056036000,-10.92482652700,8/26/2016,,2422,-10.924826527-76.95056036
356076,MARCELA POZO QUINDE,683129,LA PORTADA,MED_GPS,-77.26641641800,-11.56481150800,9/6/2016,,48,-11.564811508-77.266416418
355779,518 SE├æOR DE LOS MILAGROS,683130,ASOVICEM,MED_GPS,-77.26790986100,-11.56407052600,9/6/2016,,46,-11.564070526-77.267909861
716842,LA SAGRADA FAMILIA,125122,CHANCAY,MED_GPS,-77.26808800500,-11.56286087000,8/31/2016,,48,-11.56286087-77.268088005
779448,JOHANN HEINRICH PESTALOZZI,573749,LOS LAURELES,MED_GPS,-77.28126004400,-11.53647685800,9/1/2016,,56,-11.536476858-77.281260044
734073,PEDRO RUIZ LA ROSA,121814,LA CALERA,MED_GPS,-77.28601566200,-11.53301442700,9/1/2016,,52,-11.533014427-77.286015662
734252,21570 ESTRELLITA DE BELEN,547134,SAN MARTIN 1RA ETAPA,MED_GPS,-77.28343023400,-11.52266025000,9/1/2016,,63,-11.52266025-77.283430234
355864,20395 NUESTRA SE├æORA DE FATIMA,111824,QUEPEPAMPA,MED_GPS,-77.24821485800,-11.52161169000,9/2/2016,,112,-11.52161169-77.248214858
355821,490 JOSE DE SAN MARTIN,220458,PAMPA LIBRE,MED_GPS,-77.28790367600,-11.51526894800,9/1/2016,,75,-11.515268948-77.287903676
734290,CRUZ DIVINA,611975,CERRO LA CULEBRA,MED_GPS,-77.25504844600,-11.51209138900,9/2/2016,,112,-11.512091389-77.255048446
356000,20393 TUPAC AMARU,220458,PAMPA LIBRE,MED_GPS,-77.29047063500,-11.50941988000,9/1/2016,,67,-11.50941988-77.290470635
734351,ESTRELLA DE LA MA├æANA,652905,ESTRELLA DEL MA├æANA,MED_GPS,-77.29699915900,-11.49414113000,9/1/2016,,67,-11.49414113-77.296999159
355944,20799 DANIEL ALCIDES CARRION,123134,CHANCAYLLO,MED_GPS,-77.30483897100,-11.49034606600,9/1/2016,,38,-11.490346066-77.304838971
753698,EMANUEL,123134,CHANCAYLLO,MED_GPS,-77.30445416700,-11.48764254700,9/1/2016,,40,-11.487642547-77.304454167
734327,CEBA - EL AMAUTA,125122,CHANCAY,MED_GPS,-77.27068048200,-11.56896138400,8/31/2016,,38,-11.568961384-77.270680482
700643,CEBA - MARIO VARGAS LLOSA,125122,CHANCAY,MED_GPS,-77.27057944400,-11.56836572900,8/31/2016,,38,-11.568365729-77.270579444
734110,PEQUE├æA BELEN,112964,PERALVILLO,MED_GPS,-77.25966481600,-11.58847740900,9/2/2016,,37,-11.588477409-77.259664816
355802,85 MARIA INMACULADA CONCEPCION,125122,CHANCAY,MED_GPS,-77.27055881800,-11.56694435700,8/31/2016,,39,-11.566944357-77.270558818
648424,VILLA DE ARNEDO,125122,CHANCAY,MED_GPS,-77.26988722300,-11.56094266500,8/31/2016,,46,-11.560942665-77.269887223
583535,ANTONIO VIVALDI,125122,CHANCAY,MED_GPS,-77.26754058900,-11.56874740700,8/31/2016,,38,-11.568747407-77.267540589
356123,SANTO DOMINGO DE CHANCAY,125122,CHANCAY,MED_GPS,-77.27224155200,-11.56024281700,8/31/2016,,46,-11.560242817-77.272241552
564551,SAGRADO CORAZON DE JESUS,125122,CHANCAY,MED_GPS,-77.26985949800,-11.56944317100,8/31/2016,,38,-11.569443171-77.269859498
355982,CESAR VALLEJO,125122,CHANCAY,MED_GPS,-77.27104250100,-11.56725595900,8/31/2016,,40,-11.567255959-77.271042501
598122,SANTO DOMINGO DE CHANCAY,125122,CHANCAY,MED_GPS,-77.27224155200,-11.56024281700,8/31/2016,,46,-11.560242817-77.272241552
355977,AUGUSTO SALAZAR BONDY,125122,CHANCAY,MED_GPS,-77.27315599600,-11.55885297300,8/31/2016,,48,-11.558852973-77.273155996
355996,05 CESAR GERMAN BRICE├æO CASAS,125122,CHANCAY,MED_GPS,-77.27057944400,-11.56836572900,8/31/2016,,38,-11.568365729-77.270579444
802118,SAN JOSE,552186,LA CANDELARIA,MED_GPS,-77.29398625300,-11.50339163100,9/1/2016,,63,-11.503391631-77.293986253
3876178,RAYITOS DE SOL,111155,LAS SALINAS ALTA,MED_GPS,-77.24592364300,-11.60320307300,9/2/2016,,27,-11.603203073-77.245923643
0113540,REGALITOS DEL SABER,683125,SARITA COLONIA,MED_GPS,-77.25270672700,-11.59667962400,9/6/2016,,32,-11.596679624-77.252706727
0113511,LUCESITAS DEL SABER,112964,PERALVILLO,MED_GPS,-77.26041559600,-11.59179359100,9/2/2016,,21,-11.591793591-77.260415596
0113527,TRAVESURAS,559579,MIRAMAR,MED_GPS,-77.25614039700,-11.59131639200,9/2/2016,,51,-11.591316392-77.256140397
0127528,LUCERITOS DEL SABER,112964,PERALVILLO,MED_GPS,-77.25999274500,-11.58936319700,9/2/2016,,32,-11.589363197-77.259992745
0113526,MI SEGUNDO HOGAR,574002,LOS ALAMOS,MED_GPS,-77.25800773300,-11.58529662600,9/2/2016,,60,-11.585296626-77.258007733
0113512,SEMILLITAS,555427,CESAR VALLEJO,MED_GPS,-77.26693446900,-11.57997443000,6/5/2016,,22,-11.57997443-77.266934469
0105456,ANGELES DE JESUS,683127,JUAN VELASCO ALVARADO,MED_GPS,-77.26368851800,-11.57946755700,9/5/2016,,38,-11.579467557-77.263688518
0113542,CASITA DE DIOS,523192,28 DE JULIO,MED_GPS,-77.25078385100,-11.54213251000,9/2/2016,,119,-11.54213251-77.250783851
0127507,LOS ANGELES DE JESUS,549758,BUENA VISTA,MED_GPS,-77.25324663100,-11.53895489800,9/2/2016,,92,-11.538954898-77.253246631
290028,11591 CORAZON DE JESUS,653899,CORAZON DE JESUS,MED_GPS,-80.22187830200,-5.92688969900,7/7/2016,,53,-5.926889699-80.221878302
286682,11264,611597,CERRO SANTA ROSA,MED_GPS,-79.82669086400,-5.91617528800,7/24/2016,,123,-5.916175288-79.826690864
286205,10984,126209,LAUCHA GRANDE,MED_GPS,-79.92178727500,-5.91586798300,7/24/2016,,100,-5.915867983-79.921787275
286427,11128,123200,CRUZ DEL PUENTE,MED_GPS,-79.86394572400,-5.90233134200,7/8/2016,,113,-5.902331342-79.863945724
356095,DIEGO THOMSON,112964,PERALVILLO,MED_GPS,-77.26332342700,-11.58979170900,9/2/2016,,22,-11.589791709-77.263323427
355958,20392 JUAN PASCUAL PRINGLES,112964,PERALVILLO,MED_GPS,-77.26082852200,-11.58843216400,9/2/2016,,35,-11.588432164-77.260828522
734068,NI├æO JESUS,574002,LOS ALAMOS,MED_GPS,-77.25743429200,-11.58807822000,9/2/2016,,56,-11.58807822-77.257434292
356062,HOGAR INFANTIL,564218,PUERTO CHANCAY,MED_GPS,-77.27154735400,-11.58551593300,9/5/2016,,13,-11.585515933-77.271547354
648947,VIRGENCITA DE GUADALUPE,564218,PUERTO CHANCAY,MED_GPS,-77.26772157500,-11.58153890900,9/5/2016,,30,-11.581538909-77.267721575
355816,20394 JORGE ORTIZ DUE├æAS,564218,PUERTO CHANCAY,MED_GPS,-77.26866855400,-11.58087810300,9/5/2016,,22,-11.580878103-77.268668554
355798,450 SOR ANA DE LOS ANGELES,683127,JUAN VELASCO ALVARADO,MED_GPS,-77.26251449600,-11.58039039400,9/5/2016,,64,-11.580390394-77.262514496
355915,20788 JUAN VELASCO ALVARADO,683128,VILLA PROGRESO,MED_GPS,-77.26574650100,-11.57996114200,9/5/2016,,32,-11.579961142-77.265746501
566098,SE├æOR DE LA SOLEDAD,554188,LA SOLEDAD,MED_GPS,-77.26034074200,-11.57974767300,9/2/2016,,82,-11.579747673-77.260340742
508348,MI PEQUE├æO UNIVERSO,125122,CHANCAY,MED_GPS,-77.26858948800,-11.57027549900,8/31/2016,,36,-11.570275499-77.268589488
107893,SAGRADO CORAZON DE JESUS,125122,CHANCAY,MED_GPS,-77.26985949800,-11.56944317100,8/31/2016,,38,-11.569443171-77.269859498
363595,20183,547448,SAN JUAN DE CHILLA,MED_GPS,-76.23403760000,-12.56788581300,7/14/2016,,1905,-12.567885813-76.2340376
363430,20950,114404,ESQUINA DE OMAS,MED_GPS,-76.30863512900,-12.53810120500,7/13/2016,,1389,-12.538101205-76.308635129
363411,20170,124691,OMAS,MED_GPS,-76.28959587200,-12.51703204000,7/13/2016,,1537,-12.51703204-76.289595872
363618,20246,111700,SAN MATEO,MED_GPS,-76.21798820800,-12.49449969300,7/13/2016,,2603,-12.494499693-76.217988208
362195,20783 REYNALDO TUPI├æO AGUERO,127201,MAGDALENA DEL RIO,MED_GPS,-75.91089539700,-12.49170255800,7/6/2016,,2285,-12.491702558-75.910895397
362204,20866,114926,VICHICA,MED_GPS,-75.91467439900,-12.48637486600,7/8/2016,,2582,-12.486374866-75.914674399
362181,20751 FRAY JOSE MARIA GAGO MARIN,131634,YAUYOS,MED_GPS,-75.91450207300,-12.46086428300,7/7/2016,,2868,-12.460864283-75.914502073
363604,20184,118133,SAN PEDRO DE PILAS,MED_GPS,-76.22876195100,-12.45641545900,7/12/2016,,2658,-12.456415459-76.228761951
363425,20172,131833,SAN LORENZO DE TAMARA,MED_GPS,-76.21922275200,-12.44604227100,7/13/2016,,2834,-12.446042271-76.219222752
362591,20760 SAN ANTONIO,119085,ACHIN,MED_GPS,-75.87757507800,-12.43696092100,7/8/2016,,3298,-12.436960921-75.877575078
362435,20691,123462,AYAVIRI,MED_GPS,-76.14002196200,-12.38442282800,7/12/2016,,3272,-12.384422828-76.140021962
363557,20727,129816,SAN PEDRO DE QUINOCAY,MED_GPS,-76.22901348600,-12.36295344200,7/12/2016,,2641,-12.362953442-76.229013486
362987,20699,115172,HUAMPARA,MED_GPS,-76.16530734300,-12.36096154800,7/12/2016,,2499,-12.360961548-76.165307343
363487,20729,131721,HUACCTA,MED_GPS,-76.16184302900,-12.35516270200,7/12/2016,,2629,-12.355162702-76.161843029
363213,20709,132860,LARAOS,MED_GPS,-75.78773848900,-12.35012872900,7/20/2016,,3512,-12.350128729-75.787738489
362586,20694 APOSTOL SANTIAGO,130190,CARANIA,MED_GPS,-75.86875258400,-12.34543730400,7/21/2016,,3811,-12.345437304-75.868752584
363500,20773,126696,SAN JUAN DE MALLEURAN,MED_GPS,-76.14143682000,-12.33317050700,7/11/2016,,3360,-12.333170507-76.14143682
363562,20728 ESPERANZA RAMOS VDA DE MENDOZA,116851,SAN JUAN DE VISCAS,MED_GPS,-76.27895827600,-12.32706251300,7/12/2016,,1519,-12.327062513-76.278958276
363246,20956-1,130819,LLAPAY,MED_GPS,-75.82859639800,-12.32653553100,7/20/2016,,2944,-12.326535531-75.828596398
363393,20769,124984,PI├æOS,MED_GPS,-75.83093980000,-12.31284287400,7/21/2016,,3614,-12.312842874-75.8309398
363492,20730 JUAN DE LA MATA MICHUY R.,123536,QUINCHES,MED_GPS,-76.14076916500,-12.30741576800,7/11/2016,,3023,-12.307415768-76.140769165
362789,CPED - 20761,110030,COCHAS,MED_GPS,-76.15807838900,-12.29681686400,7/11/2016,,2799,-12.296816864-76.158078389
363623,SAN PEDRO DE PILAS,118133,SAN PEDRO DE PILAS,MED_GPS,-76.23114662800,-12.45525185500,7/12/2016,,2632,-12.455251855-76.231146628
362440,NUESTRA SE├æORA DEL ROSARIO,123462,AYAVIRI,MED_GPS,-76.13658314100,-12.38149964700,7/12/2016,,3228,-12.381499647-76.136583141
572424,SAN PEDRO,129816,SAN PEDRO DE QUINOCAY,MED_GPS,-76.22646086300,-12.36481298900,7/12/2016,,2652,-12.364812989-76.226460863
362992,HUAMPARA,115172,HUAMPARA,MED_GPS,-76.16496926400,-12.36229027900,7/12/2016,,2523,-12.362290279-76.164969264
363251,SANTO DOMINGO,132860,LARAOS,MED_GPS,-75.78682986200,-12.34830841100,7/20/2016,,3507,-12.348308411-75.786829862
362609,20694 APOSTOL SANTIAGO,130190,CARANIA,MED_GPS,-75.87004778700,-12.34523514800,7/21/2016,,3827,-12.345235148-75.870047787
736449,20728 ESPERANZA RAMOS VDA DE MENDOZA,116851,SAN JUAN DE VISCAS,MED_GPS,-76.27895827600,-12.32706251300,7/12/2016,,1519,-12.327062513-76.278958276
651794,CRFA WAYNAKUNAQ QORIWASI DEL NORYAUYOS,130819,LLAPAY,MED_GPS,-75.82770091000,-12.32778880000,7/20/2016,,2933,-12.3277888-75.82770091
363519,APOSTOL SANTIAGO,123536,QUINCHES,MED_GPS,-76.14561063500,-12.30387112900,7/11/2016,,2995,-12.303871129-76.145610635
363190,JULIO JIMENEZ PORRAS,118204,HUA├æEC,MED_GPS,-76.13882310500,-12.29686696400,7/11/2016,,3190,-12.296866964-76.138823105
362317,SAN LORENZO,122407,ALIS,MED_GPS,-75.78716255900,-12.28422095100,7/20/2016,,3230,-12.284220951-75.787162559
736350,20713,119187,MIRAFLORES,MED_GPS,-75.85216576000,-12.27363437200,7/20/2016,,3655,-12.273634372-75.85216576
363755,SANTISIMA TRINIDAD,133292,TOMAS,MED_GPS,-75.74617008300,-12.23846696800,7/21/2016,,3546,-12.238466968-75.746170083
362261,JATUM YAUYOS,131634,YAUYOS,MED_GPS,-75.91940912800,-12.46064327900,7/8/2016,,2879,-12.460643279-75.919409128
736487,YAUYOS,131634,YAUYOS,MED_GPS,-75.91964164200,-12.46004390600,7/7/2016,,2886,-12.460043906-75.919641642
736519,SE├æOR DE LA ASCENCION,127744,AZANGARO,MED_GPS,-75.83730992600,-12.99987177900,7/18/2016,,3409,-12.999871779-75.837309926
